<?xml version="1.0" encoding="UTF-8" standalone="yes"?>
<gpx>
  <metadata>
    <name>2024-04-24_14-17-41 ciclorrota prof joao medeiros</name>
    <keywords>auditoria cicloviaria</keywords>
    <keywords>osmtracker</keywords>
    <desc>CR024</desc>
  </metadata>
  <wpt lat="-8.11511252" lon="-34.90028077">
    <ele>2.14263916015625</ele>
    <time>2024-04-24T17:17:48Z</time>
    <name>Ciclorrota</name>
    <sat>16</sat>
  </wpt>
  <wpt lat="-8.11510405" lon="-34.90029226">
    <ele>2.326385498046875</ele>
    <time>2024-04-24T17:17:51Z</time>
    <name>Unidirecional no Fluxo</name>
    <sat>18</sat>
  </wpt>
  <wpt lat="-8.11509732" lon="-34.90029849">
    <ele>1.574432373046875</ele>
    <time>2024-04-24T17:17:55Z</time>
    <name>Mão Única</name>
    <sat>20</sat>
  </wpt>
  <wpt lat="-8.11509668" lon="-34.90030092">
    <ele>1.900970458984375</ele>
    <time>2024-04-24T17:17:58Z</time>
    <name>2 faixas</name>
    <sat>21</sat>
  </wpt>
  <wpt lat="-8.11509713" lon="-34.9003031">
    <ele>2.1527099609375</ele>
    <time>2024-04-24T17:18:09Z</time>
    <name>Asfalto</name>
    <sat>22</sat>
  </wpt>
  <wpt lat="-8.11509688" lon="-34.90030344">
    <ele>2.14862060546875</ele>
    <time>2024-04-24T17:18:13Z</time>
    <name>Estacionamento proibido na via</name>
    <sat>22</sat>
  </wpt>
  <wpt lat="-8.11532982" lon="-34.90039486">
    <ele>2.052398681640625</ele>
    <time>2024-04-24T17:19:03Z</time>
    <name>Foto</name>
    <link href="2024-04-24_14-19-03.jpg">
      <text>2024-04-24_14-19-03.jpg</text>
    </link>
    <sat>22</sat>
  </wpt>
  <wpt lat="-8.1153312" lon="-34.90040003">
    <ele>2.626129150390625</ele>
    <time>2024-04-24T17:19:06Z</time>
    <name>A-30</name>
    <sat>21</sat>
  </wpt>
  <wpt lat="-8.11460376" lon="-34.90034568">
    <ele>6.11175537109375</ele>
    <time>2024-04-24T17:19:40Z</time>
    <name>Foto</name>
    <link href="2024-04-24_14-19-40.jpg">
      <text>2024-04-24_14-19-40.jpg</text>
    </link>
    <sat>22</sat>
  </wpt>
  <wpt lat="-8.1137975" lon="-34.90020613">
    <ele>8.464111328125</ele>
    <time>2024-04-24T17:19:58Z</time>
    <name>A-30</name>
    <sat>23</sat>
  </wpt>
  <wpt lat="-8.11365565" lon="-34.90010292">
    <ele>7.015533447265625</ele>
    <time>2024-04-24T17:20:16Z</time>
    <name>Foto</name>
    <link href="2024-04-24_14-20-16.jpg">
      <text>2024-04-24_14-20-16.jpg</text>
    </link>
    <sat>23</sat>
  </wpt>
  <wpt lat="-8.11357956" lon="-34.90008659">
    <ele>4.76202392578125</ele>
    <time>2024-04-24T17:20:27Z</time>
    <name>A ciclo é completamente reta.</name>
    <sat>24</sat>
  </wpt>
  <wpt lat="-8.11339403" lon="-34.90022193">
    <ele>1.94219970703125</ele>
    <time>2024-04-24T17:20:36Z</time>
    <name>Não há árvores nem mudas</name>
    <sat>25</sat>
  </wpt>
  <wpt lat="-8.11377455" lon="-34.90045961">
    <ele>-2.46307373046875</ele>
    <time>2024-04-24T17:20:53Z</time>
    <name>Bom estado</name>
    <sat>24</sat>
  </wpt>
</gpx>