<?xml version="1.0" encoding="UTF-8" standalone="yes"?>
<gpx>
  <metadata>
    <name>2024-05-09_14-56-43 RUA DO HOSPÍCIO (Percurso ciclofaixa Santo Antônio)</name>
    <keywords>auditoria cicloviaria</keywords>
    <keywords>osmtracker</keywords>
    <desc>CF057, &#xD;
AC057</desc>
  </metadata>
  <wpt lat="-8.054448333333333" lon="-34.881855">
    <ele>-6.3</ele>
    <time>2024-05-09T17:56:49Z</time>
    <name>Ciclofaixa</name>
    <sat>12</sat>
  </wpt>
  <wpt lat="-8.054508333333333" lon="-34.88182166666666">
    <ele>-6.6</ele>
    <time>2024-05-09T17:57:07Z</time>
    <name>Bidirecional</name>
    <sat>26</sat>
  </wpt>
  <wpt lat="-8.054526666666668" lon="-34.88180666666666">
    <ele>-6.699999999999999</ele>
    <time>2024-05-09T17:57:12Z</time>
    <name>No bordo esquerdo de Via de Mão Única</name>
    <sat>26</sat>
  </wpt>
  <wpt lat="-8.054525" lon="-34.881795000000004">
    <ele>-6.8999999999999995</ele>
    <time>2024-05-09T17:57:53Z</time>
    <name>Mão Dupla</name>
    <sat>24</sat>
  </wpt>
  <wpt lat="-8.054525" lon="-34.881795000000004">
    <ele>-6.8999999999999995</ele>
    <time>2024-05-09T17:58:22Z</time>
    <name>Toda área de circulação pintada de vermelho</name>
    <sat>27</sat>
  </wpt>
  <wpt lat="-8.054525" lon="-34.881795000000004">
    <ele>-6.8999999999999995</ele>
    <time>2024-05-09T17:58:26Z</time>
    <name>Tachões</name>
    <sat>24</sat>
  </wpt>
  <wpt lat="-8.054525" lon="-34.881795000000004">
    <ele>-6.8999999999999995</ele>
    <time>2024-05-09T17:58:35Z</time>
    <name>Asfalto</name>
    <sat>23</sat>
  </wpt>
  <wpt lat="-8.054525" lon="-34.881795000000004">
    <ele>-6.8999999999999995</ele>
    <time>2024-05-09T17:58:38Z</time>
    <name>4 faixas</name>
    <sat>25</sat>
  </wpt>
  <wpt lat="-8.054525" lon="-34.881795000000004">
    <ele>-6.8999999999999995</ele>
    <time>2024-05-09T17:58:45Z</time>
    <name>Estacionamento proibido na via</name>
    <sat>23</sat>
  </wpt>
  <wpt lat="-8.054525" lon="-34.881795000000004">
    <ele>-6.8999999999999995</ele>
    <time>2024-05-09T17:58:47Z</time>
    <name>estacionamento proibido no início da ciclo, exceto táxi.</name>
    <sat>23</sat>
  </wpt>
  <wpt lat="-8.054463333333333" lon="-34.88186666666666">
    <ele>-5.3</ele>
    <time>2024-05-09T17:59:28Z</time>
    <name>Pictograma MÁ condição</name>
    <sat>25</sat>
  </wpt>
  <wpt lat="-8.054463333333333" lon="-34.88186666666666">
    <ele>-5.3</ele>
    <time>2024-05-09T17:59:31Z</time>
    <name>Seta MÁ condição</name>
    <sat>27</sat>
  </wpt>
  <wpt lat="-8.054463333333333" lon="-34.88186666666666">
    <ele>-5.3</ele>
    <time>2024-05-09T17:59:42Z</time>
    <name>Ponto de embarque de ônibus interrompe a ciclo</name>
    <sat>29</sat>
  </wpt>
  <wpt lat="-8.054463333333333" lon="-34.88186666666666">
    <ele>-5.3</ele>
    <time>2024-05-09T18:01:36Z</time>
    <name>Semáforo exclusivo</name>
    <sat>29</sat>
  </wpt>
  <wpt lat="-8.054463333333333" lon="-34.88186666666666">
    <ele>-5.3</ele>
    <time>2024-05-09T18:01:38Z</time>
    <name>40km/h</name>
    <sat>30</sat>
  </wpt>
  <wpt lat="-8.054463333333333" lon="-34.88186666666666">
    <ele>-5.3</ele>
    <time>2024-05-09T18:01:48Z</time>
    <name>R-34</name>
    <sat>29</sat>
  </wpt>
  <wpt lat="-8.054463333333333" lon="-34.88186666666666">
    <ele>-5.3</ele>
    <time>2024-05-09T18:01:55Z</time>
    <name>Via transversal COM acesso à ciclovia</name>
    <sat>27</sat>
  </wpt>
  <wpt lat="-8.054463333333333" lon="-34.88186666666666">
    <ele>-5.3</ele>
    <time>2024-05-09T18:02:08Z</time>
    <name>U invertido</name>
    <sat>27</sat>
  </wpt>
  <wpt lat="-8.054463333333333" lon="-34.88186666666666">
    <ele>-5.3</ele>
    <time>2024-05-09T18:02:16Z</time>
    <name>Quantidade de vagas</name>
    <sat>28</sat>
  </wpt>
  <wpt lat="-8.054463333333333" lon="-34.88186666666666">
    <ele>-5.3</ele>
    <time>2024-05-09T18:02:16Z</time>
    <name>5 vagas</name>
    <sat>28</sat>
  </wpt>
  <wpt lat="-8.054509999999999" lon="-34.881930000000004">
    <ele>-1.9000000000000004</ele>
    <time>2024-05-09T18:03:11Z</time>
    <name>Área transitável da ciclo (cm)</name>
    <sat>28</sat>
  </wpt>
  <wpt lat="-8.054508333333333" lon="-34.88192166666667">
    <ele>-1.5</ele>
    <time>2024-05-09T18:03:12Z</time>
    <name>180cm</name>
    <sat>30</sat>
  </wpt>
  <wpt lat="-8.054491666666667" lon="-34.88188666666667">
    <ele>-0.5</ele>
    <time>2024-05-09T18:03:16Z</time>
    <name>Área de amortecimento da ciclo (cm)</name>
    <sat>27</sat>
  </wpt>
  <wpt lat="-8.054488333333333" lon="-34.881885000000004">
    <ele>-0.29999999999999893</ele>
    <time>2024-05-09T18:03:17Z</time>
    <name>25 cm</name>
    <sat>26</sat>
  </wpt>
  <wpt lat="-8.05496" lon="-34.882126666666665">
    <ele>-10.0</ele>
    <time>2024-05-09T18:04:43Z</time>
    <name>Pictograma MÁ condição</name>
    <sat>29</sat>
  </wpt>
  <wpt lat="-8.05496" lon="-34.882126666666665">
    <ele>-10.0</ele>
    <time>2024-05-09T18:04:43Z</time>
    <name>Seta MÁ condição</name>
    <sat>29</sat>
  </wpt>
  <wpt lat="-8.05496" lon="-34.882126666666665">
    <ele>-10.0</ele>
    <time>2024-05-09T18:04:45Z</time>
    <name>Em cruzamento BOA condição</name>
    <sat>28</sat>
  </wpt>
  <wpt lat="-8.055238333333334" lon="-34.88227">
    <ele>-6.0</ele>
    <time>2024-05-09T18:04:59Z</time>
    <name>Pictograma MÁ condição</name>
    <sat>29</sat>
  </wpt>
  <wpt lat="-8.055238333333334" lon="-34.88227">
    <ele>-6.0</ele>
    <time>2024-05-09T18:04:59Z</time>
    <name>Seta MÁ condição</name>
    <sat>29</sat>
  </wpt>
  <wpt lat="-8.05564" lon="-34.882398333333335">
    <ele>-3.5999999999999996</ele>
    <time>2024-05-09T18:05:11Z</time>
    <name>Pictograma MÁ condição</name>
    <sat>31</sat>
  </wpt>
  <wpt lat="-8.05564" lon="-34.882398333333335">
    <ele>-3.5999999999999996</ele>
    <time>2024-05-09T18:05:11Z</time>
    <name>Seta MÁ condição</name>
    <sat>31</sat>
  </wpt>
  <wpt lat="-8.055946666666667" lon="-34.88248">
    <ele>-3.3</ele>
    <time>2024-05-09T18:05:23Z</time>
    <name>Ponto de embarque de ônibus interrompe a ciclo</name>
    <sat>30</sat>
  </wpt>
  <wpt lat="-8.056011666666667" lon="-34.8825">
    <ele>-3.3999999999999995</ele>
    <time>2024-05-09T18:05:26Z</time>
    <name>Pictograma MÁ condição</name>
    <sat>29</sat>
  </wpt>
  <wpt lat="-8.056011666666667" lon="-34.8825">
    <ele>-3.3999999999999995</ele>
    <time>2024-05-09T18:05:26Z</time>
    <name>Seta MÁ condição</name>
    <sat>29</sat>
  </wpt>
  <wpt lat="-8.056031666666666" lon="-34.882505">
    <ele>-3.3999999999999995</ele>
    <time>2024-05-09T18:05:27Z</time>
    <name>Pictograma MÁ condição</name>
    <sat>29</sat>
  </wpt>
  <wpt lat="-8.056031666666666" lon="-34.882505">
    <ele>-3.3999999999999995</ele>
    <time>2024-05-09T18:05:27Z</time>
    <name>Seta MÁ condição</name>
    <sat>29</sat>
  </wpt>
  <wpt lat="-8.056083333333333" lon="-34.88251666666667">
    <ele>-3.5999999999999996</ele>
    <time>2024-05-09T18:05:29Z</time>
    <name>Pictograma MÁ condição</name>
    <sat>28</sat>
  </wpt>
  <wpt lat="-8.056083333333333" lon="-34.88251666666667">
    <ele>-3.5999999999999996</ele>
    <time>2024-05-09T18:05:29Z</time>
    <name>Seta MÁ condição</name>
    <sat>28</sat>
  </wpt>
  <wpt lat="-8.056325" lon="-34.88257333333333">
    <ele>-5.0</ele>
    <time>2024-05-09T18:05:37Z</time>
    <name>Pictograma MÁ condição</name>
    <sat>30</sat>
  </wpt>
  <wpt lat="-8.056325" lon="-34.88257333333333">
    <ele>-5.0</ele>
    <time>2024-05-09T18:05:37Z</time>
    <name>Seta MÁ condição</name>
    <sat>30</sat>
  </wpt>
  <wpt lat="-8.056416666666667" lon="-34.88260833333333">
    <ele>-5.199999999999999</ele>
    <time>2024-05-09T18:05:40Z</time>
    <name>Ponto de embarque de ônibus interrompe a ciclo</name>
    <sat>28</sat>
  </wpt>
  <wpt lat="-8.056618333333335" lon="-34.882688333333334">
    <ele>-3.8999999999999995</ele>
    <time>2024-05-09T18:05:47Z</time>
    <name>Pictograma MÁ condição</name>
    <sat>32</sat>
  </wpt>
  <wpt lat="-8.056618333333335" lon="-34.882688333333334">
    <ele>-3.8999999999999995</ele>
    <time>2024-05-09T18:05:47Z</time>
    <name>Seta MÁ condição</name>
    <sat>32</sat>
  </wpt>
  <wpt lat="-8.057206666666668" lon="-34.88286">
    <ele>-5.1</ele>
    <time>2024-05-09T18:06:05Z</time>
    <name>U invertido</name>
    <sat>32</sat>
  </wpt>
  <wpt lat="-8.057350000000001" lon="-34.88286666666667">
    <ele>-4.199999999999999</ele>
    <time>2024-05-09T18:06:11Z</time>
    <name>5</name>
    <sat>32</sat>
  </wpt>
  <wpt lat="-8.057503333333333" lon="-34.88285666666666">
    <ele>-5.1</ele>
    <time>2024-05-09T18:06:19Z</time>
    <name>Pictograma MÁ condição</name>
    <sat>32</sat>
  </wpt>
  <wpt lat="-8.057503333333333" lon="-34.88285666666666">
    <ele>-5.1</ele>
    <time>2024-05-09T18:06:19Z</time>
    <name>Seta MÁ condição</name>
    <sat>32</sat>
  </wpt>
  <wpt lat="-8.057671666666666" lon="-34.882841666666664">
    <ele>-5.699999999999999</ele>
    <time>2024-05-09T18:06:33Z</time>
    <name>40km/h</name>
    <sat>30</sat>
  </wpt>
  <wpt lat="-8.057668333333334" lon="-34.88285166666667">
    <ele>-5.8999999999999995</ele>
    <time>2024-05-09T18:06:37Z</time>
    <name>Início</name>
    <sat>31</sat>
  </wpt>
  <wpt lat="-8.062635" lon="-34.88532">
    <ele>5.799999999999999</ele>
    <time>2024-05-09T18:24:54Z</time>
    <name>SE CICLOFAIXA: para invadir a ciclo parte do automóvel passa obrigatoriamente por cima de segregadores</name>
    <sat>22</sat>
  </wpt>
  <wpt lat="-8.062648333333334" lon="-34.885313333333336">
    <ele>5.799999999999999</ele>
    <time>2024-05-09T18:25:02Z</time>
    <name>Segregadores DIFICULTAM o acesso parcialmente de ciclistas</name>
    <sat>21</sat>
  </wpt>
  <wpt lat="-8.062648333333334" lon="-34.885313333333336">
    <ele>6.1</ele>
    <time>2024-05-09T18:25:07Z</time>
    <name>A ciclo é sinuosa, exigindo atenção</name>
    <sat>23</sat>
  </wpt>
  <wpt lat="-8.062645" lon="-34.88531666666667">
    <ele>5.700000000000001</ele>
    <time>2024-05-09T18:25:16Z</time>
    <name>A pintura é falha em VÁRIOS pontos</name>
    <sat>25</sat>
  </wpt>
  <wpt lat="-8.062645" lon="-34.88531666666667">
    <ele>5.700000000000001</ele>
    <time>2024-05-09T18:25:19Z</time>
    <name>Pequenas imperfeições, como fissuras</name>
    <sat>24</sat>
  </wpt>
</gpx>