<?xml version="1.0" encoding="UTF-8" standalone="yes"?>
<gpx>
  <metadata>
    <name>2024-04-24_13-33-40 Ciclofaixa visc jequitinhonha 1 etapa</name>
    <keywords>auditoria cicloviaria</keywords>
    <keywords>osmtracker</keywords>
    <desc>CF023</desc>
  </metadata>
  <wpt lat="-8.13495585" lon="-34.90290938">
    <ele>-5.907867431640625</ele>
    <time>2024-04-24T16:33:43Z</time>
    <name>Ciclofaixa</name>
    <sat>8</sat>
  </wpt>
  <wpt lat="-8.13496499" lon="-34.90288029">
    <ele>-6.018218994140625</ele>
    <time>2024-04-24T16:33:50Z</time>
    <name>Unidirecional no Fluxo</name>
    <sat>8</sat>
  </wpt>
  <wpt lat="-8.1349666" lon="-34.90288144">
    <ele>-5.96270751953125</ele>
    <time>2024-04-24T16:33:55Z</time>
    <name>Mão Única</name>
    <sat>8</sat>
  </wpt>
  <wpt lat="-8.13497069" lon="-34.90288487">
    <ele>-5.801666259765625</ele>
    <time>2024-04-24T16:33:59Z</time>
    <name>Asfalto</name>
    <sat>10</sat>
  </wpt>
  <wpt lat="-8.13497213" lon="-34.90288473">
    <ele>-5.748077392578125</ele>
    <time>2024-04-24T16:34:03Z</time>
    <name>Tachões</name>
    <sat>10</sat>
  </wpt>
  <wpt lat="-8.13497362" lon="-34.90288634">
    <ele>-5.60638427734375</ele>
    <time>2024-04-24T16:34:12Z</time>
    <name>R-34</name>
    <sat>10</sat>
  </wpt>
  <wpt lat="-8.13505446" lon="-34.90285959">
    <ele>-6.69146728515625</ele>
    <time>2024-04-24T16:34:35Z</time>
    <name>Foto</name>
    <link href="2024-04-24_13-34-35.jpg">
      <text>2024-04-24_13-34-35.jpg</text>
    </link>
    <sat>12</sat>
  </wpt>
  <wpt lat="-8.13505717" lon="-34.90285732">
    <ele>-6.741241455078125</ele>
    <time>2024-04-24T16:34:37Z</time>
    <name>Pictograma MÁ condição</name>
    <sat>11</sat>
  </wpt>
  <wpt lat="-8.13506044" lon="-34.9028586">
    <ele>-6.69146728515625</ele>
    <time>2024-04-24T16:34:38Z</time>
    <name>Seta MÁ condição</name>
    <sat>10</sat>
  </wpt>
  <wpt lat="-8.13564532" lon="-34.90298056">
    <ele>-7.526947021484375</ele>
    <time>2024-04-24T16:35:01Z</time>
    <name>40km/h</name>
    <sat>9</sat>
  </wpt>
  <wpt lat="-8.13602615" lon="-34.90307267">
    <ele>-8.364044189453125</ele>
    <time>2024-04-24T16:35:13Z</time>
    <name>Foto</name>
    <link href="2024-04-24_13-35-13.jpg">
      <text>2024-04-24_13-35-13.jpg</text>
    </link>
    <sat>9</sat>
  </wpt>
  <wpt lat="-8.13644791" lon="-34.90316047">
    <ele>-3.450103759765625</ele>
    <time>2024-04-24T16:35:30Z</time>
    <name>Radar/Lombada Eletrônica</name>
    <sat>8</sat>
  </wpt>
  <wpt lat="-8.13652857" lon="-34.90319368">
    <ele>-3.566131591796875</ele>
    <time>2024-04-24T16:35:34Z</time>
    <name>R-34</name>
    <sat>10</sat>
  </wpt>
  <wpt lat="-8.13673009" lon="-34.9032919">
    <ele>-4.001800537109375</ele>
    <time>2024-04-24T16:35:42Z</time>
    <name>Pictograma MÁ condição</name>
    <sat>12</sat>
  </wpt>
  <wpt lat="-8.13673009" lon="-34.9032919">
    <ele>-4.001800537109375</ele>
    <time>2024-04-24T16:35:42Z</time>
    <name>Seta MÁ condição</name>
    <sat>12</sat>
  </wpt>
  <wpt lat="-8.13702724" lon="-34.90337904">
    <ele>-4.555572509765625</ele>
    <time>2024-04-24T16:35:51Z</time>
    <name>40km/h</name>
    <sat>10</sat>
  </wpt>
  <wpt lat="-8.13738909" lon="-34.90345676">
    <ele>-12.238800048828125</ele>
    <time>2024-04-24T16:36:00Z</time>
    <name>A-30</name>
    <sat>10</sat>
  </wpt>
  <wpt lat="-8.13761259" lon="-34.9035225">
    <ele>-11.492919921875</ele>
    <time>2024-04-24T16:36:06Z</time>
    <name>Pictograma MÁ condição</name>
    <sat>10</sat>
  </wpt>
  <wpt lat="-8.13761259" lon="-34.9035225">
    <ele>-11.492919921875</ele>
    <time>2024-04-24T16:36:06Z</time>
    <name>Seta MÁ condição</name>
    <sat>10</sat>
  </wpt>
  <wpt lat="-8.13839313" lon="-34.90380447">
    <ele>-11.68927001953125</ele>
    <time>2024-04-24T16:36:25Z</time>
    <name>Seta MÁ condição</name>
    <sat>13</sat>
  </wpt>
  <wpt lat="-8.13839313" lon="-34.90380447">
    <ele>-11.68927001953125</ele>
    <time>2024-04-24T16:36:25Z</time>
    <name>Pictograma MÁ condição</name>
    <sat>13</sat>
  </wpt>
  <wpt lat="-8.13856746" lon="-34.90384343">
    <ele>-12.10552978515625</ele>
    <time>2024-04-24T16:36:29Z</time>
    <name>Em cruzamento MÁ condição</name>
    <sat>14</sat>
  </wpt>
  <wpt lat="-8.13923719" lon="-34.90404577">
    <ele>-10.670684814453125</ele>
    <time>2024-04-24T16:36:45Z</time>
    <name>Seta MÁ condição</name>
    <sat>10</sat>
  </wpt>
  <wpt lat="-8.13923719" lon="-34.90404577">
    <ele>-10.670684814453125</ele>
    <time>2024-04-24T16:36:45Z</time>
    <name>Pictograma MÁ condição</name>
    <sat>10</sat>
  </wpt>
  <wpt lat="-8.13985802" lon="-34.90424599">
    <ele>-14.54071044921875</ele>
    <time>2024-04-24T16:37:00Z</time>
    <name>Seta MÁ condição</name>
    <sat>13</sat>
  </wpt>
  <wpt lat="-8.13988124" lon="-34.9042508">
    <ele>-14.65533447265625</ele>
    <time>2024-04-24T16:37:01Z</time>
    <name>Pictograma BOA condição</name>
    <sat>13</sat>
  </wpt>
</gpx>