<?xml version="1.0" encoding="UTF-8" standalone="yes"?>
<gpx>
  <metadata>
    <name>2024-04-16_16-05-34</name>
    <keywords>auditoria cicloviaria</keywords>
    <keywords>osmtracker</keywords>
    <desc>CF018</desc>
  </metadata>
  <wpt lat="-8.06552422" lon="-34.91805713">
    <ele>2.953948974609375</ele>
    <time>2024-04-16T19:06:02Z</time>
    <name>Ciclofaixa</name>
    <sat>23</sat>
  </wpt>
  <wpt lat="-8.06552568" lon="-34.91805655">
    <ele>3.17535400390625</ele>
    <time>2024-04-16T19:06:11Z</time>
    <name>Bidirecional</name>
    <sat>17</sat>
  </wpt>
  <wpt lat="-8.06552655" lon="-34.91805602">
    <ele>3.378814697265625</ele>
    <time>2024-04-16T19:06:33Z</time>
    <name>Em bordo de Via de Mão Dupla</name>
    <sat>23</sat>
  </wpt>
  <wpt lat="-8.06552649" lon="-34.91805603">
    <ele>3.37322998046875</ele>
    <time>2024-04-16T19:06:38Z</time>
    <name>Mão Dupla</name>
    <sat>21</sat>
  </wpt>
  <wpt lat="-8.06552646" lon="-34.91805597">
    <ele>3.36859130859375</ele>
    <time>2024-04-16T19:06:46Z</time>
    <name>Apenas faixas vermelhas nas bordas, com travessias pintadas nos cruzamentos</name>
    <sat>24</sat>
  </wpt>
  <wpt lat="-8.06552644" lon="-34.91805603">
    <ele>3.371612548828125</ele>
    <time>2024-04-16T19:06:57Z</time>
    <name>Tachões</name>
    <sat>24</sat>
  </wpt>
  <wpt lat="-8.06552645" lon="-34.91805608">
    <ele>3.386260986328125</ele>
    <time>2024-04-16T19:07:02Z</time>
    <name>Asfalto</name>
    <sat>20</sat>
  </wpt>
  <wpt lat="-8.06552648" lon="-34.91805606">
    <ele>3.400848388671875</ele>
    <time>2024-04-16T19:07:11Z</time>
    <name>2 faixas</name>
    <sat>21</sat>
  </wpt>
  <wpt lat="-8.06552215" lon="-34.91806247">
    <ele>3.47607421875</ele>
    <time>2024-04-16T19:08:04Z</time>
    <name>Estacionamento de um lado, incluso na circulação</name>
    <sat>22</sat>
  </wpt>
  <wpt lat="-8.06551514" lon="-34.91802544">
    <ele>2.436798095703125</ele>
    <time>2024-04-16T19:08:23Z</time>
    <name>Foto</name>
    <link href="2024-04-16_16-08-23.jpg">
      <text>2024-04-16_16-08-23.jpg</text>
    </link>
    <sat>22</sat>
  </wpt>
  <wpt lat="-8.06550225" lon="-34.91810487">
    <ele>5.01641845703125</ele>
    <time>2024-04-16T19:09:18Z</time>
    <name>Total da via (incluindo a ciclo) (cm)</name>
    <sat>25</sat>
  </wpt>
  <wpt lat="-8.06550226" lon="-34.9181049">
    <ele>5.014923095703125</ele>
    <time>2024-04-16T19:09:19Z</time>
    <name>910</name>
    <sat>22</sat>
  </wpt>
  <wpt lat="-8.06559084" lon="-34.91814762">
    <ele>4.65179443359375</ele>
    <time>2024-04-16T19:11:04Z</time>
    <name>Faixa de carros logo ao lado da ciclo (cm)</name>
    <sat>27</sat>
  </wpt>
  <wpt lat="-8.06559084" lon="-34.91814762">
    <ele>4.65179443359375</ele>
    <time>2024-04-16T19:11:04Z</time>
    <name>320</name>
    <sat>27</sat>
  </wpt>
  <wpt lat="-8.06559047" lon="-34.91814733">
    <ele>4.654296875</ele>
    <time>2024-04-16T19:11:13Z</time>
    <name>Área de amortecimento da ciclo (cm)</name>
    <sat>25</sat>
  </wpt>
  <wpt lat="-8.06559047" lon="-34.91814733">
    <ele>4.654296875</ele>
    <time>2024-04-16T19:11:13Z</time>
    <name>25</name>
    <sat>25</sat>
  </wpt>
  <wpt lat="-8.06559043" lon="-34.9181473">
    <ele>4.6558837890625</ele>
    <time>2024-04-16T19:11:18Z</time>
    <name>Área transitável da ciclo (cm)</name>
    <sat>25</sat>
  </wpt>
  <wpt lat="-8.06559043" lon="-34.9181473">
    <ele>4.654754638671875</ele>
    <time>2024-04-16T19:11:19Z</time>
    <name>220</name>
    <sat>25</sat>
  </wpt>
  <wpt lat="-8.06536879" lon="-34.91873697">
    <ele>4.939208984375</ele>
    <time>2024-04-16T19:13:11Z</time>
    <name>Em cruzamento MÁ condição</name>
    <sat>24</sat>
  </wpt>
  <wpt lat="-8.06536942" lon="-34.91873812">
    <ele>4.9305419921875</ele>
    <time>2024-04-16T19:13:21Z</time>
    <name>Foto</name>
    <link href="2024-04-16_16-13-21.jpg">
      <text>2024-04-16_16-13-21.jpg</text>
    </link>
    <sat>21</sat>
  </wpt>
  <wpt lat="-8.06537693" lon="-34.91873242">
    <ele>3.93145751953125</ele>
    <time>2024-04-16T19:13:31Z</time>
    <name>Foto</name>
    <link href="2024-04-16_16-13-31.jpg">
      <text>2024-04-16_16-13-31.jpg</text>
    </link>
    <sat>21</sat>
  </wpt>
  <wpt lat="-8.06504154" lon="-34.91959396">
    <ele>0.623016357421875</ele>
    <time>2024-04-16T19:14:37Z</time>
    <name>Foto</name>
    <link href="2024-04-16_16-14-37.jpg">
      <text>2024-04-16_16-14-37.jpg</text>
    </link>
    <sat>15</sat>
  </wpt>
  <wpt lat="-8.06476161" lon="-34.92040833">
    <ele>3.334503173828125</ele>
    <time>2024-04-16T19:15:19Z</time>
    <name>Foto</name>
    <link href="2024-04-16_16-15-19.jpg">
      <text>2024-04-16_16-15-19.jpg</text>
    </link>
    <sat>22</sat>
  </wpt>
  <wpt lat="-8.06460522" lon="-34.92079708">
    <ele>3.165191650390625</ele>
    <time>2024-04-16T19:15:42Z</time>
    <name>Lombadas físicas</name>
    <sat>20</sat>
  </wpt>
  <wpt lat="-8.06446997" lon="-34.9211777">
    <ele>0.669647216796875</ele>
    <time>2024-04-16T19:16:05Z</time>
    <name>Foto</name>
    <link href="2024-04-16_16-16-05.jpg">
      <text>2024-04-16_16-16-05.jpg</text>
    </link>
    <sat>14</sat>
  </wpt>
  <wpt lat="-8.06443697" lon="-34.92122342">
    <ele>1.963623046875</ele>
    <time>2024-04-16T19:16:11Z</time>
    <name>Lombadas físicas</name>
    <sat>24</sat>
  </wpt>
  <wpt lat="-8.06422873" lon="-34.92188925">
    <ele>2.332916259765625</ele>
    <time>2024-04-16T19:16:53Z</time>
    <name>Foto</name>
    <link href="2024-04-16_16-16-53.jpg">
      <text>2024-04-16_16-16-53.jpg</text>
    </link>
    <sat>21</sat>
  </wpt>
  <wpt lat="-8.0642051" lon="-34.92196126">
    <ele>3.944000244140625</ele>
    <time>2024-04-16T19:17:40Z</time>
    <name>Foto</name>
    <link href="2024-04-16_16-17-40.jpg">
      <text>2024-04-16_16-17-40.jpg</text>
    </link>
    <sat>16</sat>
  </wpt>
  <wpt lat="-8.06421859" lon="-34.92196561">
    <ele>4.510101318359375</ele>
    <time>2024-04-16T19:18:09Z</time>
    <name>SE CICLOFAIXA: para invadir a ciclo parte do automóvel passa obrigatoriamente por cima de segregadores</name>
    <sat>16</sat>
  </wpt>
  <wpt lat="-8.0642185" lon="-34.92196536">
    <ele>4.52362060546875</ele>
    <time>2024-04-16T19:18:16Z</time>
    <name>A ciclo é completamente reta.</name>
    <sat>18</sat>
  </wpt>
  <wpt lat="-8.06421836" lon="-34.92196529">
    <ele>4.52740478515625</ele>
    <time>2024-04-16T19:18:23Z</time>
    <name>Sombras em alguns trechos, COM mudas plantadas</name>
    <sat>23</sat>
  </wpt>
  <wpt lat="-8.06421815" lon="-34.92196531">
    <ele>4.536651611328125</ele>
    <time>2024-04-16T19:18:34Z</time>
    <name>A pintura é MUITO falha, mostrando muito asfalto</name>
    <sat>17</sat>
  </wpt>
  <wpt lat="-8.06421794" lon="-34.92196528">
    <ele>4.533233642578125</ele>
    <time>2024-04-16T19:18:39Z</time>
    <name>Pequenas imperfeições, como fissuras</name>
    <sat>17</sat>
  </wpt>
  <wpt lat="-8.0642178" lon="-34.9219652">
    <ele>4.518341064453125</ele>
    <time>2024-04-16T19:18:45Z</time>
    <name>Iluminação geral dos dois lados da via</name>
    <sat>16</sat>
  </wpt>
</gpx>