<?xml version="1.0" encoding="UTF-8" standalone="yes"?>
<gpx>
  <metadata>
    <name>2024-05-09_15-46-53 RUA NOVA (Percurso ciclofaixa Santo Antônio)</name>
    <keywords>auditoria cicloviaria</keywords>
    <keywords>osmtracker</keywords>
    <desc>CF057, &#xD;
AC057</desc>
  </metadata>
  <wpt lat="-8.064028333333333" lon="-34.88069333333333">
    <ele>-5.8</ele>
    <time>2024-05-09T18:47:15Z</time>
    <name>Ciclofaixa</name>
    <sat>25</sat>
  </wpt>
  <wpt lat="-8.064011666666666" lon="-34.880689999999994">
    <ele>-5.8</ele>
    <time>2024-05-09T18:47:25Z</time>
    <name>Bidirecional</name>
    <sat>28</sat>
  </wpt>
  <wpt lat="-8.064021666666667" lon="-34.88068666666666">
    <ele>-5.8</ele>
    <time>2024-05-09T18:47:31Z</time>
    <name>No bordo direito de Via de Mão Única</name>
    <sat>27</sat>
  </wpt>
  <wpt lat="-8.064021666666667" lon="-34.88068666666666">
    <ele>-5.8</ele>
    <time>2024-05-09T18:47:35Z</time>
    <name>Mão Única</name>
    <sat>25</sat>
  </wpt>
  <wpt lat="-8.064021666666667" lon="-34.88068666666666">
    <ele>-5.8</ele>
    <time>2024-05-09T18:47:39Z</time>
    <name>Apenas faixas vermelhas nas bordas, com travessias pintadas nos cruzamentos</name>
    <sat>25</sat>
  </wpt>
  <wpt lat="-8.064021666666667" lon="-34.88068666666666">
    <ele>-5.8</ele>
    <time>2024-05-09T18:47:43Z</time>
    <name>Tachões</name>
    <sat>26</sat>
  </wpt>
  <wpt lat="-8.063996666666666" lon="-34.880689999999994">
    <ele>-6.3999999999999995</ele>
    <time>2024-05-09T18:47:49Z</time>
    <name>Tijolo intertravado</name>
    <sat>27</sat>
  </wpt>
  <wpt lat="-8.063988333333333" lon="-34.88068833333333">
    <ele>-6.199999999999999</ele>
    <time>2024-05-09T18:47:52Z</time>
    <name>1 faixa</name>
    <sat>27</sat>
  </wpt>
  <wpt lat="-8.064001666666666" lon="-34.88068833333333">
    <ele>-7.5</ele>
    <time>2024-05-09T18:48:15Z</time>
    <name>Estacionamento de um lado, incluso na circulação</name>
    <sat>25</sat>
  </wpt>
  <wpt lat="-8.064018333333333" lon="-34.88070166666667">
    <ele>-8.3</ele>
    <time>2024-05-09T18:48:32Z</time>
    <name>Foto</name>
    <link href="2024-05-09_15-48-32.jpg">
      <text>2024-05-09_15-48-32.jpg</text>
    </link>
    <sat>22</sat>
  </wpt>
  <wpt lat="-8.064" lon="-34.88069666666667">
    <ele>-1.0999999999999996</ele>
    <time>2024-05-09T18:50:53Z</time>
    <name>Área transitável da ciclo (cm)</name>
    <sat>28</sat>
  </wpt>
  <wpt lat="-8.064" lon="-34.88069666666667">
    <ele>-1.0999999999999996</ele>
    <time>2024-05-09T18:50:54Z</time>
    <name>220cm</name>
    <sat>29</sat>
  </wpt>
  <wpt lat="-8.064" lon="-34.88069666666667">
    <ele>-1.0999999999999996</ele>
    <time>2024-05-09T18:51:00Z</time>
    <name>Área de amortecimento da ciclo (cm)</name>
    <sat>29</sat>
  </wpt>
  <wpt lat="-8.064" lon="-34.88069666666667">
    <ele>-1.0999999999999996</ele>
    <time>2024-05-09T18:51:00Z</time>
    <name>25cm</name>
    <sat>29</sat>
  </wpt>
  <wpt lat="-8.063946666666668" lon="-34.880494999999996">
    <ele>-3.5</ele>
    <time>2024-05-09T18:52:50Z</time>
    <name>Em cruzamento BOA condição</name>
    <sat>21</sat>
  </wpt>
  <wpt lat="-8.064238333333332" lon="-34.879535000000004">
    <ele>0.09999999999999964</ele>
    <time>2024-05-09T18:53:50Z</time>
    <name>U invertido</name>
    <sat>23</sat>
  </wpt>
  <wpt lat="-8.064238333333332" lon="-34.879535000000004">
    <ele>0.09999999999999964</ele>
    <time>2024-05-09T18:53:50Z</time>
    <name>Quantidade de vagas</name>
    <sat>23</sat>
  </wpt>
  <wpt lat="-8.064253333333333" lon="-34.879515">
    <ele>0.3000000000000007</ele>
    <time>2024-05-09T18:53:51Z</time>
    <name>2</name>
    <sat>23</sat>
  </wpt>
</gpx>