<?xml version="1.0" encoding="UTF-8" standalone="yes"?>
<gpx>
  <metadata>
    <name>2024-05-09_15-35-01 PONTE DA BOA VISTA (Percurso ciclofaixa Santo Antônio)</name>
    <keywords>auditoria cicloviaria</keywords>
    <keywords>osmtracker</keywords>
    <desc>CF057, &#xD;
AC057</desc>
  </metadata>
  <wpt lat="-8.063535" lon="-34.882394999999995">
    <ele>2.5</ele>
    <time>2024-05-09T18:35:24Z</time>
    <name>Ciclofaixa</name>
    <sat>24</sat>
  </wpt>
  <wpt lat="-8.063545" lon="-34.882365">
    <ele>2.0</ele>
    <time>2024-05-09T18:35:30Z</time>
    <name>Bidirecional</name>
    <sat>23</sat>
  </wpt>
  <wpt lat="-8.06352" lon="-34.882396666666665">
    <ele>0.3000000000000007</ele>
    <time>2024-05-09T18:36:07Z</time>
    <name>No bordo direito de Via de Mão Única</name>
    <sat>26</sat>
  </wpt>
  <wpt lat="-8.063528333333332" lon="-34.88239333333333">
    <ele>1.700000000000001</ele>
    <time>2024-05-09T18:36:11Z</time>
    <name>Mão Única</name>
    <sat>26</sat>
  </wpt>
  <wpt lat="-8.06354" lon="-34.88237">
    <ele>1.4000000000000004</ele>
    <time>2024-05-09T18:36:19Z</time>
    <name>Apenas faixas vermelhas nas bordas, com travessias pintadas nos cruzamentos</name>
    <sat>26</sat>
  </wpt>
  <wpt lat="-8.06354" lon="-34.88237">
    <ele>1.4000000000000004</ele>
    <time>2024-05-09T18:36:23Z</time>
    <name>Tachões</name>
    <sat>25</sat>
  </wpt>
  <wpt lat="-8.06354" lon="-34.88237">
    <ele>1.4000000000000004</ele>
    <time>2024-05-09T18:36:27Z</time>
    <name>Asfalto</name>
    <sat>26</sat>
  </wpt>
  <wpt lat="-8.06354" lon="-34.88237">
    <ele>1.4000000000000004</ele>
    <time>2024-05-09T18:36:36Z</time>
    <name>1 faixa</name>
    <sat>27</sat>
  </wpt>
  <wpt lat="-8.06354" lon="-34.88237">
    <ele>1.4000000000000004</ele>
    <time>2024-05-09T18:36:40Z</time>
    <name>Estacionamento proibido na via</name>
    <sat>27</sat>
  </wpt>
  <wpt lat="-8.063498333333333" lon="-34.882443333333335">
    <ele>2.700000000000001</ele>
    <time>2024-05-09T18:37:26Z</time>
    <name>Foto</name>
    <link href="2024-05-09_15-37-26.jpg">
      <text>2024-05-09_15-37-26.jpg</text>
    </link>
    <sat>24</sat>
  </wpt>
  <wpt lat="-8.063513333333333" lon="-34.882405">
    <ele>1.5</ele>
    <time>2024-05-09T18:38:05Z</time>
    <name>Conversão perigosa. EXPLIQUE.</name>
    <sat>23</sat>
  </wpt>
  <wpt lat="-8.063513333333333" lon="-34.882405">
    <ele>1.5</ele>
    <time>2024-05-09T18:38:08Z</time>
    <name>carros invadem a ciclo ao fazer curvas</name>
    <sat>24</sat>
  </wpt>
  <wpt lat="-8.063529999999998" lon="-34.882394999999995">
    <ele>-0.7999999999999989</ele>
    <time>2024-05-09T18:38:53Z</time>
    <name>Acesso sem uma via transversal</name>
    <sat>24</sat>
  </wpt>
  <wpt lat="-8.063486666666668" lon="-34.88238">
    <ele>-0.5999999999999996</ele>
    <time>2024-05-09T18:43:09Z</time>
    <name>Tem cobertura</name>
    <sat>28</sat>
  </wpt>
  <wpt lat="-8.063505" lon="-34.88234166666667">
    <ele>-0.5</ele>
    <time>2024-05-09T18:43:12Z</time>
    <name>Pictograma MÁ condição</name>
    <sat>27</sat>
  </wpt>
  <wpt lat="-8.063513333333333" lon="-34.88232666666667">
    <ele>-0.5</ele>
    <time>2024-05-09T18:43:13Z</time>
    <name>Seta MÁ condição</name>
    <sat>28</sat>
  </wpt>
  <wpt lat="-8.063513333333333" lon="-34.88232666666667">
    <ele>-0.5</ele>
    <time>2024-05-09T18:43:13Z</time>
    <name>Pictograma MÁ condição</name>
    <sat>28</sat>
  </wpt>
  <wpt lat="-8.063513333333333" lon="-34.88232666666667">
    <ele>-0.5</ele>
    <time>2024-05-09T18:43:13Z</time>
    <name>Seta MÁ condição</name>
    <sat>28</sat>
  </wpt>
  <wpt lat="-8.063606666666667" lon="-34.882025">
    <ele>-0.9000000000000004</ele>
    <time>2024-05-09T18:43:23Z</time>
    <name>Pictograma MÁ condição</name>
    <sat>28</sat>
  </wpt>
  <wpt lat="-8.063606666666667" lon="-34.882025">
    <ele>-0.9000000000000004</ele>
    <time>2024-05-09T18:43:23Z</time>
    <name>Seta MÁ condição</name>
    <sat>28</sat>
  </wpt>
  <wpt lat="-8.063726666666668" lon="-34.881615000000004">
    <ele>-2.8</ele>
    <time>2024-05-09T18:43:37Z</time>
    <name>Pictograma MÁ condição</name>
    <sat>27</sat>
  </wpt>
  <wpt lat="-8.063726666666668" lon="-34.881615000000004">
    <ele>-2.8</ele>
    <time>2024-05-09T18:43:37Z</time>
    <name>Seta MÁ condição</name>
    <sat>27</sat>
  </wpt>
  <wpt lat="-8.063726666666668" lon="-34.881615000000004">
    <ele>-2.8</ele>
    <time>2024-05-09T18:43:37Z</time>
    <name>Pictograma MÁ condição</name>
    <sat>27</sat>
  </wpt>
  <wpt lat="-8.063735000000001" lon="-34.88158833333333">
    <ele>-3.1999999999999993</ele>
    <time>2024-05-09T18:43:38Z</time>
    <name>Seta MÁ condição</name>
    <sat>27</sat>
  </wpt>
  <wpt lat="-8.063913333333334" lon="-34.88103833333333">
    <ele>0.0</ele>
    <time>2024-05-09T18:44:13Z</time>
    <name>Em cruzamento MÁ condição</name>
    <sat>26</sat>
  </wpt>
  <wpt lat="-8.063901666666668" lon="-34.88072">
    <ele>-6.199999999999999</ele>
    <time>2024-05-09T18:46:07Z</time>
    <name>SE CICLOFAIXA: para invadir a ciclo parte do automóvel passa obrigatoriamente por cima de segregadores</name>
    <sat>15</sat>
  </wpt>
  <wpt lat="-8.064016666666667" lon="-34.88074666666667">
    <ele>-6.199999999999999</ele>
    <time>2024-05-09T18:46:11Z</time>
    <name>Segregadores NÃO DIFICULTAM o acesso de ciclistas</name>
    <sat>19</sat>
  </wpt>
  <wpt lat="-8.064034999999999" lon="-34.880734999999994">
    <ele>-6.1</ele>
    <time>2024-05-09T18:46:15Z</time>
    <name>A ciclo é completamente reta.</name>
    <sat>19</sat>
  </wpt>
  <wpt lat="-8.06404" lon="-34.88070333333334">
    <ele>-5.8999999999999995</ele>
    <time>2024-05-09T18:46:37Z</time>
    <name>A pintura é falha em VÁRIOS pontos</name>
    <sat>27</sat>
  </wpt>
  <wpt lat="-8.06404" lon="-34.88070333333334">
    <ele>-5.8999999999999995</ele>
    <time>2024-05-09T18:46:45Z</time>
    <name>Irregularidades que demandam desvio para circulação</name>
    <sat>26</sat>
  </wpt>
</gpx>