<?xml version="1.0" encoding="UTF-8" standalone="yes"?>
<gpx>
  <metadata>
    <name>2024-05-14_20-02-44 LEOPOLDO LINS</name>
    <keywords>auditoria cicloviaria</keywords>
    <keywords>osmtracker</keywords>
    <desc>CF033, &#xD;
CR033</desc>
  </metadata>
  <wpt lat="-8.04981" lon="-34.88983833333334">
    <ele>-9.5</ele>
    <time>2024-05-14T23:02:49Z</time>
    <name>Ciclofaixa</name>
    <sat>18</sat>
  </wpt>
  <wpt lat="-8.049818333333333" lon="-34.889831666666666">
    <ele>-9.1</ele>
    <time>2024-05-14T23:02:50Z</time>
    <name>Bidirecional com Mão Inglesa</name>
    <sat>20</sat>
  </wpt>
  <wpt lat="-8.049831666666668" lon="-34.889825">
    <ele>-9.1</ele>
    <time>2024-05-14T23:02:56Z</time>
    <name>No bordo esquerdo de Via de Mão Única</name>
    <sat>23</sat>
  </wpt>
  <wpt lat="-8.049835" lon="-34.88982166666666">
    <ele>-8.9</ele>
    <time>2024-05-14T23:02:59Z</time>
    <name>Mão Única</name>
    <sat>23</sat>
  </wpt>
  <wpt lat="-8.049835" lon="-34.88981666666667">
    <ele>-8.9</ele>
    <time>2024-05-14T23:03:02Z</time>
    <name>Toda área de circulação pintada de vermelho</name>
    <sat>24</sat>
  </wpt>
  <wpt lat="-8.049775" lon="-34.88986666666666">
    <ele>-6.5</ele>
    <time>2024-05-14T23:06:05Z</time>
    <name>Tachões</name>
    <sat>25</sat>
  </wpt>
  <wpt lat="-8.049775" lon="-34.88986666666666">
    <ele>-6.5</ele>
    <time>2024-05-14T23:06:31Z</time>
    <name>Área transitável da ciclo (cm)</name>
    <sat>24</sat>
  </wpt>
  <wpt lat="-8.049775" lon="-34.88986666666666">
    <ele>-6.5</ele>
    <time>2024-05-14T23:06:32Z</time>
    <name>215cm</name>
    <sat>24</sat>
  </wpt>
  <wpt lat="-8.049775" lon="-34.88986666666666">
    <ele>-6.5</ele>
    <time>2024-05-14T23:06:51Z</time>
    <name>Asfalto</name>
    <sat>23</sat>
  </wpt>
  <wpt lat="-8.049775" lon="-34.88986666666666">
    <ele>-6.5</ele>
    <time>2024-05-14T23:06:54Z</time>
    <name>Estacionamento de um lado, incluso na circulação</name>
    <sat>23</sat>
  </wpt>
  <wpt lat="-8.049681666666666" lon="-34.89018166666666">
    <ele>-14.2</ele>
    <time>2024-05-14T23:07:57Z</time>
    <name>Pictograma BOA condição</name>
    <sat>21</sat>
  </wpt>
  <wpt lat="-8.049669999999999" lon="-34.890235">
    <ele>-13.8</ele>
    <time>2024-05-14T23:07:58Z</time>
    <name>Seta BOA condição</name>
    <sat>22</sat>
  </wpt>
  <wpt lat="-8.049669999999999" lon="-34.890235">
    <ele>-13.8</ele>
    <time>2024-05-14T23:07:58Z</time>
    <name>Pictograma BOA condição</name>
    <sat>22</sat>
  </wpt>
  <wpt lat="-8.049669999999999" lon="-34.890235">
    <ele>-13.8</ele>
    <time>2024-05-14T23:07:58Z</time>
    <name>Seta BOA condição</name>
    <sat>22</sat>
  </wpt>
  <wpt lat="-8.049655" lon="-34.89028833333334">
    <ele>-13.7</ele>
    <time>2024-05-14T23:07:59Z</time>
    <name>Em cruzamento BOA condição</name>
    <sat>23</sat>
  </wpt>
  <wpt lat="-8.049631666666667" lon="-34.890411666666665">
    <ele>-13.6</ele>
    <time>2024-05-14T23:08:01Z</time>
    <name>Pictograma BOA condição</name>
    <sat>23</sat>
  </wpt>
  <wpt lat="-8.049631666666667" lon="-34.890411666666665">
    <ele>-13.6</ele>
    <time>2024-05-14T23:08:01Z</time>
    <name>Seta BOA condição</name>
    <sat>23</sat>
  </wpt>
  <wpt lat="-8.049621666666667" lon="-34.89047333333333">
    <ele>-13.3</ele>
    <time>2024-05-14T23:08:02Z</time>
    <name>Pictograma BOA condição</name>
    <sat>23</sat>
  </wpt>
  <wpt lat="-8.049621666666667" lon="-34.89047333333333">
    <ele>-13.3</ele>
    <time>2024-05-14T23:08:02Z</time>
    <name>Seta BOA condição</name>
    <sat>23</sat>
  </wpt>
  <wpt lat="-8.049588333333332" lon="-34.89079666666667">
    <ele>-10.2</ele>
    <time>2024-05-14T23:08:08Z</time>
    <name>40km/h</name>
    <sat>22</sat>
  </wpt>
  <wpt lat="-8.049489999999999" lon="-34.89118166666666">
    <ele>-8.799999999999999</ele>
    <time>2024-05-14T23:08:16Z</time>
    <name>Pictograma BOA condição</name>
    <sat>22</sat>
  </wpt>
  <wpt lat="-8.049471666666667" lon="-34.891225">
    <ele>-8.799999999999999</ele>
    <time>2024-05-14T23:08:17Z</time>
    <name>Seta BOA condição</name>
    <sat>23</sat>
  </wpt>
  <wpt lat="-8.049471666666667" lon="-34.891225">
    <ele>-8.799999999999999</ele>
    <time>2024-05-14T23:08:17Z</time>
    <name>Pictograma BOA condição</name>
    <sat>23</sat>
  </wpt>
  <wpt lat="-8.049471666666667" lon="-34.891225">
    <ele>-8.799999999999999</ele>
    <time>2024-05-14T23:08:17Z</time>
    <name>Seta BOA condição</name>
    <sat>23</sat>
  </wpt>
  <wpt lat="-8.049448333333334" lon="-34.891261666666665">
    <ele>-8.0</ele>
    <time>2024-05-14T23:08:18Z</time>
    <name>Pictograma BOA condição</name>
    <sat>23</sat>
  </wpt>
  <wpt lat="-8.049433333333333" lon="-34.891305">
    <ele>-7.0</ele>
    <time>2024-05-14T23:08:19Z</time>
    <name>Seta BOA condição</name>
    <sat>24</sat>
  </wpt>
  <wpt lat="-8.049433333333333" lon="-34.891305">
    <ele>-7.0</ele>
    <time>2024-05-14T23:08:19Z</time>
    <name>Pictograma BOA condição</name>
    <sat>24</sat>
  </wpt>
  <wpt lat="-8.049433333333333" lon="-34.891305">
    <ele>-7.0</ele>
    <time>2024-05-14T23:08:19Z</time>
    <name>Seta BOA condição</name>
    <sat>24</sat>
  </wpt>
  <wpt lat="-8.049418333333334" lon="-34.891345">
    <ele>-6.699999999999999</ele>
    <time>2024-05-14T23:08:20Z</time>
    <name>Em cruzamento BOA condição</name>
    <sat>24</sat>
  </wpt>
  <wpt lat="-8.049401666666666" lon="-34.89138333333334">
    <ele>-6.3999999999999995</ele>
    <time>2024-05-14T23:08:21Z</time>
    <name>Pictograma BOA condição</name>
    <sat>25</sat>
  </wpt>
  <wpt lat="-8.049401666666666" lon="-34.89138333333334">
    <ele>-6.3999999999999995</ele>
    <time>2024-05-14T23:08:21Z</time>
    <name>Seta BOA condição</name>
    <sat>25</sat>
  </wpt>
  <wpt lat="-8.049386666666667" lon="-34.891423333333336">
    <ele>-6.0</ele>
    <time>2024-05-14T23:08:22Z</time>
    <name>Pictograma BOA condição</name>
    <sat>26</sat>
  </wpt>
  <wpt lat="-8.049386666666667" lon="-34.891423333333336">
    <ele>-6.0</ele>
    <time>2024-05-14T23:08:22Z</time>
    <name>Seta BOA condição</name>
    <sat>26</sat>
  </wpt>
  <wpt lat="-8.049281666666667" lon="-34.89169166666667">
    <ele>-7.8999999999999995</ele>
    <time>2024-05-14T23:08:28Z</time>
    <name>R-34</name>
    <sat>25</sat>
  </wpt>
  <wpt lat="-8.049228333333334" lon="-34.89183333333334">
    <ele>-10.799999999999999</ele>
    <time>2024-05-14T23:08:31Z</time>
    <name>Pictograma BOA condição</name>
    <sat>26</sat>
  </wpt>
  <wpt lat="-8.049228333333334" lon="-34.89183333333334">
    <ele>-10.799999999999999</ele>
    <time>2024-05-14T23:08:31Z</time>
    <name>Seta BOA condição</name>
    <sat>26</sat>
  </wpt>
  <wpt lat="-8.049228333333334" lon="-34.89183333333334">
    <ele>-10.799999999999999</ele>
    <time>2024-05-14T23:08:31Z</time>
    <name>Pictograma BOA condição</name>
    <sat>26</sat>
  </wpt>
  <wpt lat="-8.049228333333334" lon="-34.89183333333334">
    <ele>-10.799999999999999</ele>
    <time>2024-05-14T23:08:31Z</time>
    <name>Seta BOA condição</name>
    <sat>26</sat>
  </wpt>
  <wpt lat="-8.049148333333333" lon="-34.89199333333333">
    <ele>-11.0</ele>
    <time>2024-05-14T23:08:35Z</time>
    <name>Pictograma BOA condição</name>
    <sat>23</sat>
  </wpt>
  <wpt lat="-8.049148333333333" lon="-34.89199333333333">
    <ele>-11.0</ele>
    <time>2024-05-14T23:08:35Z</time>
    <name>Seta BOA condição</name>
    <sat>23</sat>
  </wpt>
  <wpt lat="-8.049131666666666" lon="-34.89203166666667">
    <ele>-11.4</ele>
    <time>2024-05-14T23:08:36Z</time>
    <name>Pictograma BOA condição</name>
    <sat>24</sat>
  </wpt>
  <wpt lat="-8.049131666666666" lon="-34.89203166666667">
    <ele>-11.4</ele>
    <time>2024-05-14T23:08:36Z</time>
    <name>Seta BOA condição</name>
    <sat>24</sat>
  </wpt>
  <wpt lat="-8.04901" lon="-34.89232666666667">
    <ele>-13.1</ele>
    <time>2024-05-14T23:08:42Z</time>
    <name>A-30</name>
    <sat>24</sat>
  </wpt>
  <wpt lat="-8.04893" lon="-34.892475">
    <ele>-14.2</ele>
    <time>2024-05-14T23:08:45Z</time>
    <name>Pictograma BOA condição</name>
    <sat>24</sat>
  </wpt>
  <wpt lat="-8.04893" lon="-34.892475">
    <ele>-14.2</ele>
    <time>2024-05-14T23:08:45Z</time>
    <name>Seta BOA condição</name>
    <sat>24</sat>
  </wpt>
  <wpt lat="-8.04893" lon="-34.892475">
    <ele>-14.2</ele>
    <time>2024-05-14T23:08:45Z</time>
    <name>Pictograma BOA condição</name>
    <sat>24</sat>
  </wpt>
  <wpt lat="-8.04893" lon="-34.892475">
    <ele>-14.2</ele>
    <time>2024-05-14T23:08:45Z</time>
    <name>Seta BOA condição</name>
    <sat>24</sat>
  </wpt>
  <wpt lat="-8.048851666666668" lon="-34.89255">
    <ele>-19.9</ele>
    <time>2024-05-14T23:08:52Z</time>
    <name>Complementar</name>
    <sat>26</sat>
  </wpt>
  <wpt lat="-8.048851666666668" lon="-34.89255">
    <ele>-19.9</ele>
    <time>2024-05-14T23:09:00Z</time>
    <name>Semáforo exclusivo</name>
    <sat>26</sat>
  </wpt>
</gpx>