<?xml version="1.0" encoding="UTF-8" standalone="yes"?>
<gpx>
  <metadata>
    <name>2024-05-09_18-59-25 AV JOÃO DE BARROS (Perscuso ciclofaixa João de Barros)</name>
    <keywords>auditoria cicloviaria</keywords>
    <keywords>osmtracker</keywords>
    <desc>CF064</desc>
  </metadata>
  <wpt lat="-8.047770000000002" lon="-34.88976666666667">
    <ele>6.200000000000001</ele>
    <time>2024-05-09T21:59:46Z</time>
    <name>Ciclofaixa</name>
    <sat>27</sat>
  </wpt>
  <wpt lat="-8.047763333333334" lon="-34.88976666666667">
    <ele>5.4</ele>
    <time>2024-05-09T22:00:28Z</time>
    <name>Unidirecional no Fluxo</name>
    <sat>29</sat>
  </wpt>
  <wpt lat="-8.047763333333334" lon="-34.88976666666667">
    <ele>5.4</ele>
    <time>2024-05-09T22:00:34Z</time>
    <name>Na via, junto ao canteiro</name>
    <sat>29</sat>
  </wpt>
  <wpt lat="-8.047763333333334" lon="-34.88976666666667">
    <ele>5.4</ele>
    <time>2024-05-09T22:00:39Z</time>
    <name>Mão Única</name>
    <sat>29</sat>
  </wpt>
  <wpt lat="-8.047763333333334" lon="-34.88976666666667">
    <ele>5.4</ele>
    <time>2024-05-09T22:00:41Z</time>
    <name>Toda área de circulação pintada de vermelho</name>
    <sat>27</sat>
  </wpt>
  <wpt lat="-8.047763333333334" lon="-34.88976666666667">
    <ele>5.4</ele>
    <time>2024-05-09T22:00:43Z</time>
    <name>3 faixas</name>
    <sat>27</sat>
  </wpt>
  <wpt lat="-8.047763333333334" lon="-34.88976666666667">
    <ele>5.4</ele>
    <time>2024-05-09T22:00:48Z</time>
    <name>Tachões</name>
    <sat>27</sat>
  </wpt>
  <wpt lat="-8.047763333333334" lon="-34.88976666666667">
    <ele>5.4</ele>
    <time>2024-05-09T22:00:53Z</time>
    <name>Asfalto</name>
    <sat>28</sat>
  </wpt>
  <wpt lat="-8.047763333333334" lon="-34.88976666666667">
    <ele>5.4</ele>
    <time>2024-05-09T22:01:03Z</time>
    <name>Estacionamento proibido na via</name>
    <sat>25</sat>
  </wpt>
  <wpt lat="-8.047763333333334" lon="-34.88976666666667">
    <ele>5.4</ele>
    <time>2024-05-09T22:01:07Z</time>
    <name>A-30</name>
    <sat>27</sat>
  </wpt>
  <wpt lat="-8.047753333333333" lon="-34.889765000000004">
    <ele>-9.299999999999999</ele>
    <time>2024-05-09T22:01:37Z</time>
    <name>Complementar</name>
    <sat>28</sat>
  </wpt>
  <wpt lat="-8.047726666666668" lon="-34.88979166666666">
    <ele>-9.1</ele>
    <time>2024-05-09T22:01:46Z</time>
    <name>40km/h</name>
    <sat>27</sat>
  </wpt>
  <wpt lat="-8.047564999999999" lon="-34.88979166666666">
    <ele>-5.699999999999999</ele>
    <time>2024-05-09T22:01:53Z</time>
    <name>Pictograma MÁ condição</name>
    <sat>30</sat>
  </wpt>
  <wpt lat="-8.047564999999999" lon="-34.88979166666666">
    <ele>-5.699999999999999</ele>
    <time>2024-05-09T22:01:53Z</time>
    <name>Seta MÁ condição</name>
    <sat>30</sat>
  </wpt>
  <wpt lat="-8.046835" lon="-34.889831666666666">
    <ele>5.700000000000001</ele>
    <time>2024-05-09T22:02:10Z</time>
    <name>Pictograma MÁ condição</name>
    <sat>29</sat>
  </wpt>
  <wpt lat="-8.04678" lon="-34.88983333333333">
    <ele>5.1</ele>
    <time>2024-05-09T22:02:11Z</time>
    <name>Seta MÁ condição</name>
    <sat>28</sat>
  </wpt>
  <wpt lat="-8.04558" lon="-34.88997">
    <ele>-2.299999999999999</ele>
    <time>2024-05-09T22:02:40Z</time>
    <name>Pictograma MÁ condição</name>
    <sat>29</sat>
  </wpt>
  <wpt lat="-8.04558" lon="-34.88997">
    <ele>-2.299999999999999</ele>
    <time>2024-05-09T22:02:40Z</time>
    <name>Seta MÁ condição</name>
    <sat>29</sat>
  </wpt>
  <wpt lat="-8.045581666666667" lon="-34.88997333333334">
    <ele>-1.799999999999999</ele>
    <time>2024-05-09T22:02:41Z</time>
    <name>Em cruzamento MÁ condição</name>
    <sat>30</sat>
  </wpt>
  <wpt lat="-8.045581666666667" lon="-34.889985">
    <ele>0.0</ele>
    <time>2024-05-09T22:02:59Z</time>
    <name>Via transversal COM acesso à ciclovia</name>
    <sat>30</sat>
  </wpt>
  <wpt lat="-8.045581666666667" lon="-34.889985">
    <ele>0.0</ele>
    <time>2024-05-09T22:03:22Z</time>
    <name>SE CICLOFAIXA: para invadir a ciclo parte do automóvel passa obrigatoriamente por cima de segregadores</name>
    <sat>28</sat>
  </wpt>
  <wpt lat="-8.045581666666667" lon="-34.889985">
    <ele>0.0</ele>
    <time>2024-05-09T22:03:26Z</time>
    <name>Segregadores NÃO DIFICULTAM o acesso de ciclistas</name>
    <sat>29</sat>
  </wpt>
  <wpt lat="-8.045581666666667" lon="-34.889985">
    <ele>0.0</ele>
    <time>2024-05-09T22:03:28Z</time>
    <name>A ciclo é completamente reta.</name>
    <sat>29</sat>
  </wpt>
  <wpt lat="-8.045581666666667" lon="-34.889985">
    <ele>0.0</ele>
    <time>2024-05-09T22:03:31Z</time>
    <name>A pintura está boa, mas FALHA em ALGUNS pontos</name>
    <sat>30</sat>
  </wpt>
  <wpt lat="-8.045581666666667" lon="-34.889985">
    <ele>0.0</ele>
    <time>2024-05-09T22:03:34Z</time>
    <name>Pequenas imperfeições, como fissuras</name>
    <sat>30</sat>
  </wpt>
  <wpt lat="-8.045581666666667" lon="-34.889985">
    <ele>0.0</ele>
    <time>2024-05-09T22:03:40Z</time>
    <name>Área transitável da ciclo (cm)</name>
    <sat>28</sat>
  </wpt>
  <wpt lat="-8.045581666666667" lon="-34.889985">
    <ele>0.0</ele>
    <time>2024-05-09T22:03:41Z</time>
    <name>110cm</name>
    <sat>27</sat>
  </wpt>
  <wpt lat="-8.045581666666667" lon="-34.889985">
    <ele>0.0</ele>
    <time>2024-05-09T22:03:46Z</time>
    <name>Área de amortecimento da ciclo (cm)</name>
    <sat>27</sat>
  </wpt>
  <wpt lat="-8.045581666666667" lon="-34.889985">
    <ele>0.0</ele>
    <time>2024-05-09T22:03:46Z</time>
    <name>25cm</name>
    <sat>27</sat>
  </wpt>
</gpx>