<?xml version="1.0" encoding="UTF-8" standalone="yes"?>
<gpx>
  <metadata>
    <name>2024-05-15_19-08-24</name>
    <keywords>auditoria cicloviaria</keywords>
    <keywords>osmtracker</keywords>
    <desc>CF056</desc>
  </metadata>
  <wpt lat="-8.04391999" lon="-34.8979039">
    <ele>-59.44989013671875</ele>
    <time>2024-05-15T22:08:32Z</time>
    <name>Ciclofaixa</name>
    <sat>9</sat>
  </wpt>
  <wpt lat="-8.04384912" lon="-34.89798824">
    <ele>-15.1556396484375</ele>
    <time>2024-05-15T22:08:36Z</time>
    <name>Ciclofaixa</name>
    <sat>12</sat>
  </wpt>
  <wpt lat="-8.04386164" lon="-34.89814545">
    <ele>-18.40728759765625</ele>
    <time>2024-05-15T22:08:44Z</time>
    <name>Unidirecional no Fluxo</name>
    <sat>17</sat>
  </wpt>
  <wpt lat="-8.04386374" lon="-34.89823205">
    <ele>-15.16802978515625</ele>
    <time>2024-05-15T22:08:50Z</time>
    <name>No bordo esquerdo de Via de Mão Única</name>
    <sat>18</sat>
  </wpt>
  <wpt lat="-8.04386227" lon="-34.89828274">
    <ele>-14.31719970703125</ele>
    <time>2024-05-15T22:08:53Z</time>
    <name>Mão Única</name>
    <sat>18</sat>
  </wpt>
  <wpt lat="-8.0438635" lon="-34.89834893">
    <ele>-12.91217041015625</ele>
    <time>2024-05-15T22:08:56Z</time>
    <name>Toda área de circulação pintada de vermelho</name>
    <sat>17</sat>
  </wpt>
  <wpt lat="-8.04387295" lon="-34.89852236">
    <ele>-5.50665283203125</ele>
    <time>2024-05-15T22:09:09Z</time>
    <name>Tachões</name>
    <sat>17</sat>
  </wpt>
  <wpt lat="-8.04387319" lon="-34.89852602">
    <ele>-4.51519775390625</ele>
    <time>2024-05-15T22:09:11Z</time>
    <name>Asfalto</name>
    <sat>19</sat>
  </wpt>
  <wpt lat="-8.04387174" lon="-34.89853588">
    <ele>-2.61279296875</ele>
    <time>2024-05-15T22:09:12Z</time>
    <name>Toda área de circulação pintada de vermelho</name>
    <sat>18</sat>
  </wpt>
  <wpt lat="-8.043861" lon="-34.89855035">
    <ele>3.948455810546875</ele>
    <time>2024-05-15T22:09:18Z</time>
    <name>2 faixas</name>
    <sat>17</sat>
  </wpt>
  <wpt lat="-8.04385573" lon="-34.89855693">
    <ele>4.590179443359375</ele>
    <time>2024-05-15T22:09:20Z</time>
    <name>Estacionamento proibido na via</name>
    <sat>15</sat>
  </wpt>
  <wpt lat="-8.043845" lon="-34.89855787">
    <ele>6.306427001953125</ele>
    <time>2024-05-15T22:09:26Z</time>
    <name>Pictograma BOA condição</name>
    <sat>16</sat>
  </wpt>
  <wpt lat="-8.043843" lon="-34.89855853">
    <ele>6.220306396484375</ele>
    <time>2024-05-15T22:09:26Z</time>
    <name>Seta BOA condição</name>
    <sat>15</sat>
  </wpt>
  <wpt lat="-8.04384228" lon="-34.89868204">
    <ele>9.934906005859375</ele>
    <time>2024-05-15T22:09:35Z</time>
    <name>Pictograma BOA condição</name>
    <sat>16</sat>
  </wpt>
  <wpt lat="-8.04383941" lon="-34.89870445">
    <ele>9.923309326171875</ele>
    <time>2024-05-15T22:09:35Z</time>
    <name>Seta BOA condição</name>
    <sat>14</sat>
  </wpt>
  <wpt lat="-8.04382876" lon="-34.89878506">
    <ele>9.4591064453125</ele>
    <time>2024-05-15T22:09:39Z</time>
    <name>Em cruzamento MÁ condição</name>
    <sat>18</sat>
  </wpt>
  <wpt lat="-8.04387289" lon="-34.89891766">
    <ele>4.02276611328125</ele>
    <time>2024-05-15T22:09:50Z</time>
    <name>Pictograma BOA condição</name>
    <sat>19</sat>
  </wpt>
  <wpt lat="-8.04387096" lon="-34.8989194">
    <ele>3.776763916015625</ele>
    <time>2024-05-15T22:09:51Z</time>
    <name>Seta BOA condição</name>
    <sat>19</sat>
  </wpt>
  <wpt lat="-8.04385784" lon="-34.89884392">
    <ele>2.84637451171875</ele>
    <time>2024-05-15T22:10:29Z</time>
    <name>123</name>
    <sat>21</sat>
  </wpt>
  <wpt lat="-8.04379749" lon="-34.8987278">
    <ele>3.55413818359375</ele>
    <time>2024-05-15T22:10:46Z</time>
    <name>Área transitável da ciclo (cm)</name>
    <sat>22</sat>
  </wpt>
  <wpt lat="-8.04379757" lon="-34.89873279">
    <ele>4.4188232421875</ele>
    <time>2024-05-15T22:10:46Z</time>
    <name>25</name>
    <sat>23</sat>
  </wpt>
  <wpt lat="-8.04381687" lon="-34.89880709">
    <ele>-0.981964111328125</ele>
    <time>2024-05-15T22:10:52Z</time>
    <name>Área de amortecimento da ciclo (cm)</name>
    <sat>23</sat>
  </wpt>
  <wpt lat="-8.04382624" lon="-34.89891719">
    <ele>1.552581787109375</ele>
    <time>2024-05-15T22:11:02Z</time>
    <name>Área de amortecimento da ciclo (cm)</name>
    <sat>23</sat>
  </wpt>
  <wpt lat="-8.04382092" lon="-34.89892209">
    <ele>1.359893798828125</ele>
    <time>2024-05-15T22:11:03Z</time>
    <name>25cm</name>
    <sat>22</sat>
  </wpt>
  <wpt lat="-8.04381386" lon="-34.8989307">
    <ele>0.01141357421875</ele>
    <time>2024-05-15T22:11:08Z</time>
    <name>Área transitável da ciclo (cm)</name>
    <sat>26</sat>
  </wpt>
  <wpt lat="-8.04381386" lon="-34.8989307">
    <ele>0.01141357421875</ele>
    <time>2024-05-15T22:11:08Z</time>
    <name>105cm</name>
    <sat>26</sat>
  </wpt>
  <wpt lat="-8.04384181" lon="-34.89914221">
    <ele>-4.4259033203125</ele>
    <time>2024-05-15T22:11:38Z</time>
    <name>Desnível</name>
    <sat>24</sat>
  </wpt>
  <wpt lat="-8.04384058" lon="-34.89944047">
    <ele>-4.73126220703125</ele>
    <time>2024-05-15T22:11:53Z</time>
    <name>40km/h</name>
    <sat>23</sat>
  </wpt>
  <wpt lat="-8.04386393" lon="-34.89961469">
    <ele>-3.74688720703125</ele>
    <time>2024-05-15T22:12:00Z</time>
    <name>Pictograma BOA condição</name>
    <sat>25</sat>
  </wpt>
  <wpt lat="-8.04386393" lon="-34.89961469">
    <ele>-3.74688720703125</ele>
    <time>2024-05-15T22:12:00Z</time>
    <name>Seta BOA condição</name>
    <sat>25</sat>
  </wpt>
  <wpt lat="-8.04386946" lon="-34.899658">
    <ele>-3.384735107421875</ele>
    <time>2024-05-15T22:12:03Z</time>
    <name>Em cruzamento MÁ condição</name>
    <sat>25</sat>
  </wpt>
  <wpt lat="-8.04387843" lon="-34.89976162">
    <ele>-5.290924072265625</ele>
    <time>2024-05-15T22:12:10Z</time>
    <name>Pictograma BOA condição</name>
    <sat>24</sat>
  </wpt>
  <wpt lat="-8.04387952" lon="-34.89977887">
    <ele>-5.546234130859375</ele>
    <time>2024-05-15T22:12:11Z</time>
    <name>Seta BOA condição</name>
    <sat>25</sat>
  </wpt>
  <wpt lat="-8.04387554" lon="-34.89994288">
    <ele>-4.33258056640625</ele>
    <time>2024-05-15T22:12:50Z</time>
    <name>A ciclo troca de lado na via, sem redutores de velocidade ou semáforos</name>
    <sat>24</sat>
  </wpt>
  <wpt lat="-8.04387583" lon="-34.89994291">
    <ele>-4.75994873046875</ele>
    <time>2024-05-15T22:12:51Z</time>
    <name>com semáforo mas sem redutores</name>
    <sat>21</sat>
  </wpt>
  <wpt lat="-8.04388268" lon="-34.90005475">
    <ele>-3.47369384765625</ele>
    <time>2024-05-15T22:13:55Z</time>
    <name>Área transitável da ciclo (cm)</name>
    <sat>24</sat>
  </wpt>
  <wpt lat="-8.04388519" lon="-34.90006347">
    <ele>-4.232696533203125</ele>
    <time>2024-05-15T22:13:56Z</time>
    <name>120cm</name>
    <sat>24</sat>
  </wpt>
  <wpt lat="-8.04389599" lon="-34.90010689">
    <ele>-3.697723388671875</ele>
    <time>2024-05-15T22:14:01Z</time>
    <name>Área de amortecimento da ciclo (cm)</name>
    <sat>22</sat>
  </wpt>
  <wpt lat="-8.04389599" lon="-34.90010689">
    <ele>-3.697723388671875</ele>
    <time>2024-05-15T22:14:01Z</time>
    <name>25cm</name>
    <sat>22</sat>
  </wpt>
  <wpt lat="-8.04394885" lon="-34.90028878">
    <ele>-6.34576416015625</ele>
    <time>2024-05-15T22:15:06Z</time>
    <name>Total da via (incluindo a ciclo) (cm)</name>
    <sat>25</sat>
  </wpt>
  <wpt lat="-8.04393784" lon="-34.90029175">
    <ele>-5.864990234375</ele>
    <time>2024-05-15T22:15:07Z</time>
    <name>1090cm</name>
    <sat>24</sat>
  </wpt>
  <wpt lat="-8.04391206" lon="-34.90030406">
    <ele>-6.364288330078125</ele>
    <time>2024-05-15T22:15:16Z</time>
    <name>Área de amortecimento da ciclo (cm)</name>
    <sat>23</sat>
  </wpt>
  <wpt lat="-8.04391206" lon="-34.90030406">
    <ele>-6.364288330078125</ele>
    <time>2024-05-15T22:15:16Z</time>
    <name>25cm</name>
    <sat>23</sat>
  </wpt>
  <wpt lat="-8.04390249" lon="-34.90032577">
    <ele>-7.3284912109375</ele>
    <time>2024-05-15T22:15:32Z</time>
    <name>Faixa de carros logo ao lado da ciclo (cm)</name>
    <sat>24</sat>
  </wpt>
  <wpt lat="-8.04390249" lon="-34.90032577">
    <ele>-7.3284912109375</ele>
    <time>2024-05-15T22:15:32Z</time>
    <name>945cm</name>
    <sat>24</sat>
  </wpt>
  <wpt lat="-8.04388367" lon="-34.90031169">
    <ele>-6.643280029296875</ele>
    <time>2024-05-15T22:15:42Z</time>
    <name>SE CICLOFAIXA: para invadir a ciclo parte do automóvel passa obrigatoriamente por cima de segregadores</name>
    <sat>24</sat>
  </wpt>
  <wpt lat="-8.04387915" lon="-34.90031878">
    <ele>-7.3760986328125</ele>
    <time>2024-05-15T22:15:45Z</time>
    <name>Segregadores NÃO DIFICULTAM o acesso de ciclistas</name>
    <sat>21</sat>
  </wpt>
  <wpt lat="-8.04388044" lon="-34.90031823">
    <ele>-7.44183349609375</ele>
    <time>2024-05-15T22:15:48Z</time>
    <name>A ciclo é completamente reta.</name>
    <sat>21</sat>
  </wpt>
  <wpt lat="-8.04385899" lon="-34.90033669">
    <ele>-4.48358154296875</ele>
    <time>2024-05-15T22:16:03Z</time>
    <name>Sombras em alguns trechos, SEM mudas novas</name>
    <sat>24</sat>
  </wpt>
  <wpt lat="-8.04386037" lon="-34.90034764">
    <ele>-2.210784912109375</ele>
    <time>2024-05-15T22:16:09Z</time>
    <name>A pintura está boa, mas FALHA em ALGUNS pontos</name>
    <sat>22</sat>
  </wpt>
  <wpt lat="-8.04385993" lon="-34.9003111">
    <ele>-0.210205078125</ele>
    <time>2024-05-15T22:16:24Z</time>
    <name>Pequenas imperfeições, como fissuras</name>
    <sat>24</sat>
  </wpt>
  <wpt lat="-8.04386952" lon="-34.9003104">
    <ele>0.904571533203125</ele>
    <time>2024-05-15T22:16:29Z</time>
    <name>Iluminação geral dos dois lados da via</name>
    <sat>25</sat>
  </wpt>
</gpx>