<?xml version="1.0" encoding="UTF-8" standalone="yes"?>
<gpx>
  <metadata>
    <name>2024-05-09_15-15-43 RUA DO HOSPÍCIO (Percurso ciclofaixa Santo Antônio)</name>
    <keywords>auditoria cicloviaria</keywords>
    <keywords>osmtracker</keywords>
    <desc>CF057, &#xD;
AC057</desc>
  </metadata>
  <wpt lat="-8.059351666666666" lon="-34.88343833333333">
    <ele>-3.6999999999999993</ele>
    <time>2024-05-09T18:15:47Z</time>
    <name>Ciclofaixa</name>
    <sat>14</sat>
  </wpt>
  <wpt lat="-8.059346666666666" lon="-34.88347">
    <ele>-3.8999999999999995</ele>
    <time>2024-05-09T18:15:53Z</time>
    <name>Ciclofaixa</name>
    <sat>19</sat>
  </wpt>
  <wpt lat="-8.059368333333333" lon="-34.88348">
    <ele>-3.3999999999999995</ele>
    <time>2024-05-09T18:16:01Z</time>
    <name>Bidirecional com Mão Inglesa</name>
    <sat>21</sat>
  </wpt>
  <wpt lat="-8.059366666666667" lon="-34.88349">
    <ele>-3.0999999999999996</ele>
    <time>2024-05-09T18:16:08Z</time>
    <name>No bordo esquerdo de Via de Mão Única</name>
    <sat>23</sat>
  </wpt>
  <wpt lat="-8.05935" lon="-34.88350666666667">
    <ele>-2.6999999999999993</ele>
    <time>2024-05-09T18:16:21Z</time>
    <name>Mão Única</name>
    <sat>24</sat>
  </wpt>
  <wpt lat="-8.05935" lon="-34.88350666666667">
    <ele>-2.6999999999999993</ele>
    <time>2024-05-09T18:16:30Z</time>
    <name>Apenas faixas vermelhas nas bordas, com travessias pintadas nos cruzamentos</name>
    <sat>23</sat>
  </wpt>
  <wpt lat="-8.05935" lon="-34.88350666666667">
    <ele>-2.6999999999999993</ele>
    <time>2024-05-09T18:16:36Z</time>
    <name>Tachões</name>
    <sat>24</sat>
  </wpt>
  <wpt lat="-8.05935" lon="-34.88350666666667">
    <ele>-2.6999999999999993</ele>
    <time>2024-05-09T18:16:38Z</time>
    <name>Asfalto</name>
    <sat>24</sat>
  </wpt>
  <wpt lat="-8.05935" lon="-34.88350666666667">
    <ele>-2.6999999999999993</ele>
    <time>2024-05-09T18:16:52Z</time>
    <name>4 faixas</name>
    <sat>26</sat>
  </wpt>
  <wpt lat="-8.05935" lon="-34.88350666666667">
    <ele>-2.6999999999999993</ele>
    <time>2024-05-09T18:16:54Z</time>
    <name>Estacionamento proibido na via</name>
    <sat>26</sat>
  </wpt>
  <wpt lat="-8.05935" lon="-34.88350666666667">
    <ele>-2.6999999999999993</ele>
    <time>2024-05-09T18:17:01Z</time>
    <name>estacionamento proibido exceto táxi no começo da ciclo</name>
    <sat>25</sat>
  </wpt>
  <wpt lat="-8.05935" lon="-34.88350666666667">
    <ele>-2.6999999999999993</ele>
    <time>2024-05-09T18:17:29Z</time>
    <name>Pictograma MÁ condição</name>
    <sat>25</sat>
  </wpt>
  <wpt lat="-8.05935" lon="-34.88350666666667">
    <ele>-2.6999999999999993</ele>
    <time>2024-05-09T18:17:32Z</time>
    <name>Seta MÁ condição</name>
    <sat>23</sat>
  </wpt>
  <wpt lat="-8.05935" lon="-34.88350666666667">
    <ele>-2.6999999999999993</ele>
    <time>2024-05-09T18:17:36Z</time>
    <name>Seta MÁ condição</name>
    <sat>21</sat>
  </wpt>
  <wpt lat="-8.05935" lon="-34.88350666666667">
    <ele>-2.6999999999999993</ele>
    <time>2024-05-09T18:17:36Z</time>
    <name>Pictograma MÁ condição</name>
    <sat>21</sat>
  </wpt>
  <wpt lat="-8.05935" lon="-34.88350666666667">
    <ele>-2.6999999999999993</ele>
    <time>2024-05-09T18:18:08Z</time>
    <name>Área transitável da ciclo (cm)</name>
    <sat>24</sat>
  </wpt>
  <wpt lat="-8.05935" lon="-34.88350666666667">
    <ele>-2.6999999999999993</ele>
    <time>2024-05-09T18:18:08Z</time>
    <name>155cm</name>
    <sat>24</sat>
  </wpt>
  <wpt lat="-8.05935" lon="-34.88350666666667">
    <ele>-2.6999999999999993</ele>
    <time>2024-05-09T18:18:14Z</time>
    <name>Área de amortecimento da ciclo (cm)</name>
    <sat>25</sat>
  </wpt>
  <wpt lat="-8.05935" lon="-34.88350666666667">
    <ele>-2.6999999999999993</ele>
    <time>2024-05-09T18:18:15Z</time>
    <name>25cm</name>
    <sat>23</sat>
  </wpt>
  <wpt lat="-8.059368333333333" lon="-34.883495">
    <ele>-1.0999999999999996</ele>
    <time>2024-05-09T18:18:22Z</time>
    <name>Buraco</name>
    <sat>24</sat>
  </wpt>
  <wpt lat="-8.059368333333333" lon="-34.883493333333334">
    <ele>-1.0999999999999996</ele>
    <time>2024-05-09T18:18:24Z</time>
    <name>Vala profunda</name>
    <sat>24</sat>
  </wpt>
  <wpt lat="-8.059655" lon="-34.88360333333333">
    <ele>-0.5999999999999996</ele>
    <time>2024-05-09T18:19:10Z</time>
    <name>Pictograma MÁ condição</name>
    <sat>25</sat>
  </wpt>
  <wpt lat="-8.059655" lon="-34.88360333333333">
    <ele>-0.5999999999999996</ele>
    <time>2024-05-09T18:19:10Z</time>
    <name>Seta MÁ condição</name>
    <sat>25</sat>
  </wpt>
  <wpt lat="-8.059835" lon="-34.883678333333336">
    <ele>-1.0999999999999996</ele>
    <time>2024-05-09T18:19:16Z</time>
    <name>Pictograma MÁ condição</name>
    <sat>22</sat>
  </wpt>
  <wpt lat="-8.059835" lon="-34.883678333333336">
    <ele>-1.0999999999999996</ele>
    <time>2024-05-09T18:19:16Z</time>
    <name>Seta MÁ condição</name>
    <sat>22</sat>
  </wpt>
  <wpt lat="-8.060673333333334" lon="-34.88393833333334">
    <ele>-2.0</ele>
    <time>2024-05-09T18:20:03Z</time>
    <name>Travessia de pedestre em nível (lombofaixa)</name>
    <sat>19</sat>
  </wpt>
  <wpt lat="-8.060678333333334" lon="-34.88394666666667">
    <ele>-1.6999999999999993</ele>
    <time>2024-05-09T18:20:15Z</time>
    <name>Em cruzamento MÁ condição</name>
    <sat>17</sat>
  </wpt>
  <wpt lat="-8.061143333333332" lon="-34.884078333333335">
    <ele>2.0999999999999996</ele>
    <time>2024-05-09T18:20:35Z</time>
    <name>Travessia de pedestre em nível (lombofaixa)</name>
    <sat>25</sat>
  </wpt>
  <wpt lat="-8.061961666666667" lon="-34.88464333333333">
    <ele>-4.3999999999999995</ele>
    <time>2024-05-09T18:21:01Z</time>
    <name>Em cruzamento MÁ condição</name>
    <sat>22</sat>
  </wpt>
  <wpt lat="-8.062216666666666" lon="-34.884903333333334">
    <ele>-3.8</ele>
    <time>2024-05-09T18:21:16Z</time>
    <name>Travessia de pedestre em nível (lombofaixa)</name>
    <sat>25</sat>
  </wpt>
  <wpt lat="-8.06223" lon="-34.88492166666666">
    <ele>-3.8</ele>
    <time>2024-05-09T18:21:17Z</time>
    <name>Piso diferenciado</name>
    <sat>25</sat>
  </wpt>
  <wpt lat="-8.062475000000001" lon="-34.885178333333336">
    <ele>-11.5</ele>
    <time>2024-05-09T18:21:31Z</time>
    <name>U invertido</name>
    <sat>25</sat>
  </wpt>
  <wpt lat="-8.062561666666666" lon="-34.88525">
    <ele>-10.9</ele>
    <time>2024-05-09T18:21:36Z</time>
    <name>Quantidade de vagas</name>
    <sat>24</sat>
  </wpt>
  <wpt lat="-8.062598333333334" lon="-34.88524666666667">
    <ele>-11.2</ele>
    <time>2024-05-09T18:21:38Z</time>
    <name>5</name>
    <sat>24</sat>
  </wpt>
  <wpt lat="-8.062633333333334" lon="-34.885315">
    <ele>4.1</ele>
    <time>2024-05-09T18:22:59Z</time>
    <name>SE CICLOFAIXA: para invadir a ciclo parte do automóvel passa obrigatoriamente por cima de segregadores</name>
    <sat>22</sat>
  </wpt>
  <wpt lat="-8.062633333333334" lon="-34.885328333333334">
    <ele>5.0</ele>
    <time>2024-05-09T18:23:08Z</time>
    <name>Segregadores NÃO DIFICULTAM o acesso de ciclistas</name>
    <sat>24</sat>
  </wpt>
  <wpt lat="-8.06263" lon="-34.885328333333334">
    <ele>5.1</ele>
    <time>2024-05-09T18:23:14Z</time>
    <name>A ciclo é sinuosa, exigindo atenção</name>
    <sat>24</sat>
  </wpt>
  <wpt lat="-8.06263" lon="-34.885328333333334">
    <ele>5.1</ele>
    <time>2024-05-09T18:23:21Z</time>
    <name>A pintura é MUITO falha, mostrando muito asfalto</name>
    <sat>24</sat>
  </wpt>
  <wpt lat="-8.06263" lon="-34.885328333333334">
    <ele>5.1</ele>
    <time>2024-05-09T18:23:27Z</time>
    <name>Irregularidades que demandam desvio para circulação</name>
    <sat>25</sat>
  </wpt>
</gpx>