<?xml version="1.0" encoding="UTF-8" standalone="yes"?>
<gpx>
  <metadata>
    <name>2024-05-27_17-10-11</name>
    <keywords>auditoria cicloviaria</keywords>
    <keywords>osmtracker</keywords>
    <desc>CF059</desc>
  </metadata>
  <wpt lat="-8.03148527" lon="-34.88788755">
    <ele>0.26287841796875</ele>
    <time>2024-05-27T20:10:23Z</time>
    <name>Ciclofaixa</name>
    <sat>35</sat>
  </wpt>
  <wpt lat="-8.03148521" lon="-34.88788747">
    <ele>0.269073486328125</ele>
    <time>2024-05-27T20:10:25Z</time>
    <name>Bidirecional</name>
    <sat>34</sat>
  </wpt>
  <wpt lat="-8.0314884" lon="-34.88789765">
    <ele>2.37982177734375</ele>
    <time>2024-05-27T20:10:55Z</time>
    <name>Toda área de circulação pintada de vermelho</name>
    <sat>34</sat>
  </wpt>
  <wpt lat="-8.03148773" lon="-34.88789703">
    <ele>2.37567138671875</ele>
    <time>2024-05-27T20:10:58Z</time>
    <name>Tachões</name>
    <sat>34</sat>
  </wpt>
  <wpt lat="-8.03148764" lon="-34.88789644">
    <ele>2.465240478515625</ele>
    <time>2024-05-27T20:11:01Z</time>
    <name>Asfalto</name>
    <sat>35</sat>
  </wpt>
  <wpt lat="-8.03148633" lon="-34.88789538">
    <ele>2.52520751953125</ele>
    <time>2024-05-27T20:11:12Z</time>
    <name>2 faixas</name>
    <sat>34</sat>
  </wpt>
  <wpt lat="-8.03148567" lon="-34.88789474">
    <ele>2.522125244140625</ele>
    <time>2024-05-27T20:11:15Z</time>
    <name>Estacionamento de um lado, incluso na circulação</name>
    <sat>34</sat>
  </wpt>
  <wpt lat="-8.0314852" lon="-34.88789394">
    <ele>2.51251220703125</ele>
    <time>2024-05-27T20:11:21Z</time>
    <name>Pictograma BOA condição</name>
    <sat>32</sat>
  </wpt>
  <wpt lat="-8.0314852" lon="-34.88789394">
    <ele>2.51251220703125</ele>
    <time>2024-05-27T20:11:21Z</time>
    <name>Seta BOA condição</name>
    <sat>32</sat>
  </wpt>
  <wpt lat="-8.03149249" lon="-34.88791535">
    <ele>3.769195556640625</ele>
    <time>2024-05-27T20:13:46Z</time>
    <name>Total da via (incluindo a ciclo) (cm)</name>
    <sat>32</sat>
  </wpt>
  <wpt lat="-8.03149186" lon="-34.8879146">
    <ele>3.73724365234375</ele>
    <time>2024-05-27T20:13:49Z</time>
    <name>839cm</name>
    <sat>29</sat>
  </wpt>
  <wpt lat="-8.03149025" lon="-34.88791276">
    <ele>3.754302978515625</ele>
    <time>2024-05-27T20:14:07Z</time>
    <name>Faixa de carros logo ao lado da ciclo (cm)</name>
    <sat>31</sat>
  </wpt>
  <wpt lat="-8.03149" lon="-34.88791247">
    <ele>3.748809814453125</ele>
    <time>2024-05-27T20:14:09Z</time>
    <name>583cm</name>
    <sat>31</sat>
  </wpt>
  <wpt lat="-8.0314886" lon="-34.88791116">
    <ele>3.721282958984375</ele>
    <time>2024-05-27T20:14:27Z</time>
    <name>Área de amortecimento da ciclo (cm)</name>
    <sat>31</sat>
  </wpt>
  <wpt lat="-8.03148864" lon="-34.88791124">
    <ele>3.72998046875</ele>
    <time>2024-05-27T20:14:28Z</time>
    <name>58cm</name>
    <sat>28</sat>
  </wpt>
  <wpt lat="-8.03148755" lon="-34.88791055">
    <ele>3.701507568359375</ele>
    <time>2024-05-27T20:14:37Z</time>
    <name>Área transitável da ciclo (cm)</name>
    <sat>26</sat>
  </wpt>
  <wpt lat="-8.03148755" lon="-34.8879106">
    <ele>3.705322265625</ele>
    <time>2024-05-27T20:14:38Z</time>
    <name>198cm</name>
    <sat>26</sat>
  </wpt>
  <wpt lat="-8.03125915" lon="-34.88825119">
    <ele>2.672607421875</ele>
    <time>2024-05-27T20:15:23Z</time>
    <name>Buraco</name>
    <sat>31</sat>
  </wpt>
  <wpt lat="-8.03122488" lon="-34.88830737">
    <ele>2.60125732421875</ele>
    <time>2024-05-27T20:15:26Z</time>
    <name>Raíz</name>
    <sat>33</sat>
  </wpt>
  <wpt lat="-8.03122488" lon="-34.88830737">
    <ele>2.60125732421875</ele>
    <time>2024-05-27T20:15:26Z</time>
    <name>Grade alinhada ao pneu</name>
    <sat>33</sat>
  </wpt>
  <wpt lat="-8.03122488" lon="-34.88830737">
    <ele>2.60125732421875</ele>
    <time>2024-05-27T20:15:26Z</time>
    <name>Buraco</name>
    <sat>33</sat>
  </wpt>
  <wpt lat="-8.03122488" lon="-34.88830737">
    <ele>2.60125732421875</ele>
    <time>2024-05-27T20:15:26Z</time>
    <name>Bueiro</name>
    <sat>33</sat>
  </wpt>
  <wpt lat="-8.03122488" lon="-34.88830737">
    <ele>2.60125732421875</ele>
    <time>2024-05-27T20:15:26Z</time>
    <name>Desnível</name>
    <sat>33</sat>
  </wpt>
  <wpt lat="-8.03122488" lon="-34.88830737">
    <ele>2.60125732421875</ele>
    <time>2024-05-27T20:15:26Z</time>
    <name>Grade alinhada ao pneu</name>
    <sat>33</sat>
  </wpt>
  <wpt lat="-8.0312014" lon="-34.88836381">
    <ele>2.153045654296875</ele>
    <time>2024-05-27T20:15:28Z</time>
    <name>Bueiro</name>
    <sat>33</sat>
  </wpt>
  <wpt lat="-8.0312014" lon="-34.88836381">
    <ele>2.153045654296875</ele>
    <time>2024-05-27T20:15:28Z</time>
    <name>Buraco</name>
    <sat>33</sat>
  </wpt>
  <wpt lat="-8.03118937" lon="-34.88838954">
    <ele>2.14996337890625</ele>
    <time>2024-05-27T20:15:29Z</time>
    <name>Grade alinhada ao pneu</name>
    <sat>31</sat>
  </wpt>
  <wpt lat="-8.03118937" lon="-34.88838954">
    <ele>2.14996337890625</ele>
    <time>2024-05-27T20:15:29Z</time>
    <name>Bueiro</name>
    <sat>31</sat>
  </wpt>
  <wpt lat="-8.03118937" lon="-34.88838954">
    <ele>2.14996337890625</ele>
    <time>2024-05-27T20:15:29Z</time>
    <name>Vala profunda</name>
    <sat>31</sat>
  </wpt>
  <wpt lat="-8.03111693" lon="-34.88848324">
    <ele>4.63275146484375</ele>
    <time>2024-05-27T20:15:34Z</time>
    <name>Pictograma BOA condição</name>
    <sat>29</sat>
  </wpt>
  <wpt lat="-8.03111693" lon="-34.88848324">
    <ele>4.63275146484375</ele>
    <time>2024-05-27T20:15:34Z</time>
    <name>Seta BOA condição</name>
    <sat>29</sat>
  </wpt>
  <wpt lat="-8.03109602" lon="-34.88852133">
    <ele>4.6907958984375</ele>
    <time>2024-05-27T20:15:37Z</time>
    <name>Em cruzamento BOA condição</name>
    <sat>34</sat>
  </wpt>
  <wpt lat="-8.03101188" lon="-34.88864228">
    <ele>3.295166015625</ele>
    <time>2024-05-27T20:15:45Z</time>
    <name>Pictograma BOA condição</name>
    <sat>36</sat>
  </wpt>
  <wpt lat="-8.03099809" lon="-34.88865085">
    <ele>2.607421875</ele>
    <time>2024-05-27T20:15:46Z</time>
    <name>Seta BOA condição</name>
    <sat>36</sat>
  </wpt>
  <wpt lat="-8.03094227" lon="-34.88866879">
    <ele>1.477508544921875</ele>
    <time>2024-05-27T20:15:49Z</time>
    <name>Em cruzamento BOA condição</name>
    <sat>35</sat>
  </wpt>
  <wpt lat="-8.03094227" lon="-34.88866879">
    <ele>1.477508544921875</ele>
    <time>2024-05-27T20:15:49Z</time>
    <name>Em cruzamento BOA condição</name>
    <sat>35</sat>
  </wpt>
  <wpt lat="-8.03094227" lon="-34.88866879">
    <ele>1.477508544921875</ele>
    <time>2024-05-27T20:15:49Z</time>
    <name>Em cruzamento BOA condição</name>
    <sat>35</sat>
  </wpt>
  <wpt lat="-8.03094227" lon="-34.88866879">
    <ele>1.477508544921875</ele>
    <time>2024-05-27T20:15:49Z</time>
    <name>Em cruzamento BOA condição</name>
    <sat>35</sat>
  </wpt>
  <wpt lat="-8.03094227" lon="-34.88866879">
    <ele>1.477508544921875</ele>
    <time>2024-05-27T20:15:49Z</time>
    <name>Em cruzamento BOA condição</name>
    <sat>35</sat>
  </wpt>
  <wpt lat="-8.03094227" lon="-34.88866879">
    <ele>1.477508544921875</ele>
    <time>2024-05-27T20:15:49Z</time>
    <name>Em cruzamento BOA condição</name>
    <sat>35</sat>
  </wpt>
  <wpt lat="-8.03094227" lon="-34.88866879">
    <ele>1.477508544921875</ele>
    <time>2024-05-27T20:15:49Z</time>
    <name>Em cruzamento BOA condição</name>
    <sat>35</sat>
  </wpt>
  <wpt lat="-8.03094227" lon="-34.88866879">
    <ele>1.477508544921875</ele>
    <time>2024-05-27T20:15:49Z</time>
    <name>Em cruzamento BOA condição</name>
    <sat>35</sat>
  </wpt>
  <wpt lat="-8.0307615" lon="-34.88872992">
    <ele>1.2940673828125</ele>
    <time>2024-05-27T20:15:58Z</time>
    <name>Bueiro</name>
    <sat>36</sat>
  </wpt>
  <wpt lat="-8.03072913" lon="-34.88874641">
    <ele>2.123260498046875</ele>
    <time>2024-05-27T20:16:02Z</time>
    <name>Bueiro</name>
    <sat>39</sat>
  </wpt>
  <wpt lat="-8.03071983" lon="-34.88876646">
    <ele>1.7093505859375</ele>
    <time>2024-05-27T20:16:28Z</time>
    <name>Pictograma MÁ condição</name>
    <sat>38</sat>
  </wpt>
  <wpt lat="-8.03071983" lon="-34.88876646">
    <ele>1.7093505859375</ele>
    <time>2024-05-27T20:16:28Z</time>
    <name>Seta BOA condição</name>
    <sat>38</sat>
  </wpt>
  <wpt lat="-8.03071822" lon="-34.88877137">
    <ele>-0.152984619140625</ele>
    <time>2024-05-27T20:16:37Z</time>
    <name>Área transitável da ciclo (cm)</name>
    <sat>37</sat>
  </wpt>
  <wpt lat="-8.0307211" lon="-34.88877208">
    <ele>-0.735748291015625</ele>
    <time>2024-05-27T20:16:38Z</time>
    <name>193cm</name>
    <sat>37</sat>
  </wpt>
  <wpt lat="-8.03073424" lon="-34.8887715">
    <ele>-0.908447265625</ele>
    <time>2024-05-27T20:16:44Z</time>
    <name>Área de amortecimento da ciclo (cm)</name>
    <sat>35</sat>
  </wpt>
  <wpt lat="-8.03073424" lon="-34.8887715">
    <ele>-0.908447265625</ele>
    <time>2024-05-27T20:16:44Z</time>
    <name>57cm</name>
    <sat>35</sat>
  </wpt>
  <wpt lat="-8.0307125" lon="-34.88876614">
    <ele>-0.720489501953125</ele>
    <time>2024-05-27T20:17:05Z</time>
    <name>Foto</name>
    <link href="2024-05-27_17-17-05.jpg">
      <text>2024-05-27_17-17-05.jpg</text>
    </link>
    <sat>35</sat>
  </wpt>
  <wpt lat="-8.03066851" lon="-34.88877441">
    <ele>-0.71673583984375</ele>
    <time>2024-05-27T20:17:19Z</time>
    <name>Bueiro</name>
    <sat>38</sat>
  </wpt>
  <wpt lat="-8.0306036" lon="-34.88880953">
    <ele>0.534393310546875</ele>
    <time>2024-05-27T20:17:24Z</time>
    <name>Em cruzamento MÁ condição</name>
    <sat>39</sat>
  </wpt>
  <wpt lat="-8.03054709" lon="-34.88882495">
    <ele>0.414215087890625</ele>
    <time>2024-05-27T20:17:28Z</time>
    <name>Pictograma MÁ condição</name>
    <sat>39</sat>
  </wpt>
  <wpt lat="-8.03053615" lon="-34.88882558">
    <ele>0.38262939453125</ele>
    <time>2024-05-27T20:17:29Z</time>
    <name>Seta BOA condição</name>
    <sat>38</sat>
  </wpt>
  <wpt lat="-8.03034584" lon="-34.888904">
    <ele>0.459503173828125</ele>
    <time>2024-05-27T20:17:39Z</time>
    <name>Bueiro</name>
    <sat>36</sat>
  </wpt>
  <wpt lat="-8.0302882" lon="-34.88892725">
    <ele>0.331878662109375</ele>
    <time>2024-05-27T20:17:42Z</time>
    <name>Raíz</name>
    <sat>36</sat>
  </wpt>
  <wpt lat="-8.03024377" lon="-34.88894478">
    <ele>0.4473876953125</ele>
    <time>2024-05-27T20:17:44Z</time>
    <name>Raíz</name>
    <sat>37</sat>
  </wpt>
  <wpt lat="-8.03024377" lon="-34.88894478">
    <ele>0.4473876953125</ele>
    <time>2024-05-27T20:17:44Z</time>
    <name>Raíz</name>
    <sat>37</sat>
  </wpt>
  <wpt lat="-8.03022254" lon="-34.88895506">
    <ele>0.815582275390625</ele>
    <time>2024-05-27T20:17:45Z</time>
    <name>Raíz</name>
    <sat>36</sat>
  </wpt>
  <wpt lat="-8.03018944" lon="-34.88897454">
    <ele>0.854248046875</ele>
    <time>2024-05-27T20:17:47Z</time>
    <name>Raíz</name>
    <sat>34</sat>
  </wpt>
  <wpt lat="-8.03018944" lon="-34.88897454">
    <ele>0.854248046875</ele>
    <time>2024-05-27T20:17:47Z</time>
    <name>Raíz</name>
    <sat>34</sat>
  </wpt>
  <wpt lat="-8.03018944" lon="-34.88897454">
    <ele>0.854248046875</ele>
    <time>2024-05-27T20:17:47Z</time>
    <name>Raíz</name>
    <sat>34</sat>
  </wpt>
  <wpt lat="-8.03016926" lon="-34.88897947">
    <ele>0.801300048828125</ele>
    <time>2024-05-27T20:17:48Z</time>
    <name>Raíz</name>
    <sat>34</sat>
  </wpt>
  <wpt lat="-8.03006416" lon="-34.88899812">
    <ele>0.4847412109375</ele>
    <time>2024-05-27T20:17:53Z</time>
    <name>Pictograma BOA condição</name>
    <sat>37</sat>
  </wpt>
  <wpt lat="-8.03006416" lon="-34.88899812">
    <ele>0.4847412109375</ele>
    <time>2024-05-27T20:17:53Z</time>
    <name>Seta BOA condição</name>
    <sat>37</sat>
  </wpt>
  <wpt lat="-8.02988375" lon="-34.88906134">
    <ele>1.391510009765625</ele>
    <time>2024-05-27T20:18:03Z</time>
    <name>Bueiro</name>
    <sat>33</sat>
  </wpt>
  <wpt lat="-8.02971174" lon="-34.88911899">
    <ele>1.36309814453125</ele>
    <time>2024-05-27T20:18:15Z</time>
    <name>Pictograma MÁ condição</name>
    <sat>37</sat>
  </wpt>
  <wpt lat="-8.02968761" lon="-34.88912889">
    <ele>1.501983642578125</ele>
    <time>2024-05-27T20:18:17Z</time>
    <name>Seta BOA condição</name>
    <sat>38</sat>
  </wpt>
  <wpt lat="-8.0296781" lon="-34.88914308">
    <ele>1.250396728515625</ele>
    <time>2024-05-27T20:18:23Z</time>
    <name>Bueiro</name>
    <sat>36</sat>
  </wpt>
  <wpt lat="-8.02972037" lon="-34.88913278">
    <ele>2.909454345703125</ele>
    <time>2024-05-27T20:18:42Z</time>
    <name>Área de amortecimento da ciclo (cm)</name>
    <sat>34</sat>
  </wpt>
  <wpt lat="-8.02972037" lon="-34.88913278">
    <ele>2.909454345703125</ele>
    <time>2024-05-27T20:18:42Z</time>
    <name>56cm</name>
    <sat>34</sat>
  </wpt>
  <wpt lat="-8.02971921" lon="-34.88912246">
    <ele>4.265289306640625</ele>
    <time>2024-05-27T20:18:56Z</time>
    <name>Área transitável da ciclo (cm)</name>
    <sat>28</sat>
  </wpt>
  <wpt lat="-8.02972159" lon="-34.88912473">
    <ele>4.188018798828125</ele>
    <time>2024-05-27T20:18:57Z</time>
    <name>186cm</name>
    <sat>30</sat>
  </wpt>
  <wpt lat="-8.02971963" lon="-34.88913534">
    <ele>4.523895263671875</ele>
    <time>2024-05-27T20:19:22Z</time>
    <name>SE CICLOFAIXA: para invadir a ciclo parte do automóvel passa obrigatoriamente por cima de segregadores</name>
    <sat>35</sat>
  </wpt>
  <wpt lat="-8.0297198" lon="-34.88913612">
    <ele>4.53387451171875</ele>
    <time>2024-05-27T20:19:25Z</time>
    <name>Segregadores NÃO DIFICULTAM o acesso de ciclistas</name>
    <sat>36</sat>
  </wpt>
  <wpt lat="-8.02971967" lon="-34.88913609">
    <ele>4.51959228515625</ele>
    <time>2024-05-27T20:19:28Z</time>
    <name>A ciclo é sinuosa, exigindo atenção</name>
    <sat>30</sat>
  </wpt>
  <wpt lat="-8.02970984" lon="-34.88914439">
    <ele>3.701446533203125</ele>
    <time>2024-05-27T20:19:39Z</time>
    <name>Sombras em alguns trechos, COM mudas plantadas</name>
    <sat>31</sat>
  </wpt>
  <wpt lat="-8.02970816" lon="-34.88914979">
    <ele>3.2374267578125</ele>
    <time>2024-05-27T20:19:45Z</time>
    <name>A pintura é MUITO falha, mostrando muito asfalto</name>
    <sat>35</sat>
  </wpt>
  <wpt lat="-8.02970673" lon="-34.88914872">
    <ele>3.32183837890625</ele>
    <time>2024-05-27T20:19:48Z</time>
    <name>Pequenas imperfeições, como fissuras</name>
    <sat>31</sat>
  </wpt>
  <wpt lat="-8.02970488" lon="-34.88914716">
    <ele>3.4471435546875</ele>
    <time>2024-05-27T20:19:57Z</time>
    <name>Iluminação geral dos dois lados da via</name>
    <sat>31</sat>
  </wpt>
  <wpt lat="-8.02970136" lon="-34.88914417">
    <ele>3.79931640625</ele>
    <time>2024-05-27T20:20:13Z</time>
    <name>Em bordo de Via de Mão Dupla</name>
    <sat>29</sat>
  </wpt>
  <wpt lat="-8.02970131" lon="-34.88914411">
    <ele>3.80902099609375</ele>
    <time>2024-05-27T20:20:15Z</time>
    <name>Mão Dupla</name>
    <sat>27</sat>
  </wpt>
  <wpt lat="-8.0297004" lon="-34.88914326">
    <ele>3.877716064453125</ele>
    <time>2024-05-27T20:20:21Z</time>
    <name>2 faixas</name>
    <sat>29</sat>
  </wpt>
</gpx>