<?xml version="1.0" encoding="UTF-8" standalone="yes"?>
<gpx>
  <metadata>
    <name>2024-05-26_15-27-41</name>
    <keywords>auditoria cicloviaria</keywords>
    <keywords>osmtracker</keywords>
    <desc>JCV37</desc>
  </metadata>
  <wpt lat="-8.18847882" lon="-34.9214148">
    <ele>24.96722412109375</ele>
    <time>2024-05-26T18:27:50Z</time>
    <name>Ciclofaixa</name>
    <sat>21</sat>
  </wpt>
  <wpt lat="-8.18845382" lon="-34.92140379">
    <ele>25.8223876953125</ele>
    <time>2024-05-26T18:28:00Z</time>
    <name>No bordo direito de Via de Mão Única</name>
    <sat>22</sat>
  </wpt>
  <wpt lat="-8.18845839" lon="-34.92139957">
    <ele>25.87457275390625</ele>
    <time>2024-05-26T18:28:06Z</time>
    <name>Toda área de circulação pintada de vermelho</name>
    <sat>21</sat>
  </wpt>
  <wpt lat="-8.18846047" lon="-34.9213979">
    <ele>25.24188232421875</ele>
    <time>2024-05-26T18:28:11Z</time>
    <name>Asfalto</name>
    <sat>20</sat>
  </wpt>
  <wpt lat="-8.18846435" lon="-34.92139642">
    <ele>23.494384765625</ele>
    <time>2024-05-26T18:28:13Z</time>
    <name>1 faixa</name>
    <sat>20</sat>
  </wpt>
  <wpt lat="-8.18846613" lon="-34.92139355">
    <ele>24.4512939453125</ele>
    <time>2024-05-26T18:28:17Z</time>
    <name>Estacionamento de um lado, incluso na circulação</name>
    <sat>18</sat>
  </wpt>
  <wpt lat="-8.18843854" lon="-34.92140035">
    <ele>22.98712158203125</ele>
    <time>2024-05-26T18:28:23Z</time>
    <name>AMBAS: NENHUM ou QUASE NENHUM segregador.</name>
    <sat>18</sat>
  </wpt>
  <wpt lat="-8.18840764" lon="-34.92141593">
    <ele>18.1826171875</ele>
    <time>2024-05-26T18:28:25Z</time>
    <name>Segregadores NÃO DIFICULTAM o acesso de ciclistas</name>
    <sat>17</sat>
  </wpt>
  <wpt lat="-8.18840923" lon="-34.92141858">
    <ele>18.62103271484375</ele>
    <time>2024-05-26T18:28:27Z</time>
    <name>A ciclo é completamente reta.</name>
    <sat>18</sat>
  </wpt>
  <wpt lat="-8.1884062" lon="-34.92142321">
    <ele>17.15606689453125</ele>
    <time>2024-05-26T18:28:31Z</time>
    <name>Não há árvores nem mudas</name>
    <sat>18</sat>
  </wpt>
  <wpt lat="-8.18840637" lon="-34.9214226">
    <ele>17.3250732421875</ele>
    <time>2024-05-26T18:28:34Z</time>
    <name>Pintura APAGADA ou somente rastros de tinta</name>
    <sat>17</sat>
  </wpt>
  <wpt lat="-8.18840729" lon="-34.92142364">
    <ele>17.48065185546875</ele>
    <time>2024-05-26T18:28:37Z</time>
    <name>Pequenas imperfeições, como fissuras</name>
    <sat>13</sat>
  </wpt>
  <wpt lat="-8.18840775" lon="-34.92142389">
    <ele>17.5128173828125</ele>
    <time>2024-05-26T18:28:41Z</time>
    <name>Iluminação geral na via do outro lado da infraestrutura</name>
    <sat>17</sat>
  </wpt>
  <wpt lat="-8.18860437" lon="-34.92013406">
    <ele>9.56732177734375</ele>
    <time>2024-05-26T18:29:40Z</time>
    <name>pintura completamente apagada e sem sinalizações </name>
    <sat>27</sat>
  </wpt>
</gpx>