<?xml version="1.0" encoding="UTF-8" standalone="yes"?>
<gpx>
  <metadata>
    <name>2024-05-10_13-53-24 ciclofaixa av histo pereira da costa</name>
    <keywords>auditoria cicloviaria</keywords>
    <keywords>osmtracker</keywords>
  </metadata>
  <wpt lat="-8.28127962" lon="-35.03148825">
    <ele>9.793060302734375</ele>
    <time>2024-05-10T16:53:39Z</time>
    <name>Foto</name>
    <link href="2024-05-10_13-53-39.jpg">
      <text>2024-05-10_13-53-39.jpg</text>
    </link>
    <sat>32</sat>
  </wpt>
  <wpt lat="-8.2812828" lon="-35.03148719">
    <ele>10.20452880859375</ele>
    <time>2024-05-10T16:53:40Z</time>
    <name>pictogramas sobrepostos kkkk não temos nenhuma indicação de sentido - bidirecional até que se prove o contrário</name>
    <sat>31</sat>
  </wpt>
  <wpt lat="-8.28128018" lon="-35.03148357">
    <ele>9.169464111328125</ele>
    <time>2024-05-10T16:54:43Z</time>
    <name>Foto</name>
    <link href="2024-05-10_13-54-43.jpg">
      <text>2024-05-10_13-54-43.jpg</text>
    </link>
    <sat>31</sat>
  </wpt>
  <wpt lat="-8.28131402" lon="-35.03151497">
    <ele>9.406494140625</ele>
    <time>2024-05-10T16:55:54Z</time>
    <name>Área transitável da ciclo (cm)</name>
    <sat>31</sat>
  </wpt>
  <wpt lat="-8.28131402" lon="-35.03151497">
    <ele>9.406494140625</ele>
    <time>2024-05-10T16:55:54Z</time>
    <name>100</name>
    <sat>31</sat>
  </wpt>
  <wpt lat="-8.28130971" lon="-35.03152149">
    <ele>10.11181640625</ele>
    <time>2024-05-10T16:56:00Z</time>
    <name>Área de amortecimento da ciclo (cm)</name>
    <sat>31</sat>
  </wpt>
  <wpt lat="-8.28130971" lon="-35.03152149">
    <ele>10.11181640625</ele>
    <time>2024-05-10T16:56:00Z</time>
    <name>25</name>
    <sat>31</sat>
  </wpt>
  <wpt lat="-8.2813192" lon="-35.03152487">
    <ele>8.907379150390625</ele>
    <time>2024-05-10T16:56:33Z</time>
    <name>Total da via (incluindo a ciclo) (cm)</name>
    <sat>31</sat>
  </wpt>
  <wpt lat="-8.2813192" lon="-35.03152487">
    <ele>8.907379150390625</ele>
    <time>2024-05-10T16:56:33Z</time>
    <name>664</name>
    <sat>31</sat>
  </wpt>
  <wpt lat="-8.28128956" lon="-35.03151513">
    <ele>11.280548095703125</ele>
    <time>2024-05-10T16:57:30Z</time>
    <name>Faixa de carros logo ao lado da ciclo (cm)</name>
    <sat>32</sat>
  </wpt>
  <wpt lat="-8.28128956" lon="-35.03151513">
    <ele>11.280548095703125</ele>
    <time>2024-05-10T16:57:30Z</time>
    <name>235</name>
    <sat>32</sat>
  </wpt>
  <wpt lat="-8.28129564" lon="-35.03153662">
    <ele>9.928192138671875</ele>
    <time>2024-05-10T16:58:50Z</time>
    <name>Foto</name>
    <link href="2024-05-10_13-58-50.jpg">
      <text>2024-05-10_13-58-50.jpg</text>
    </link>
    <sat>31</sat>
  </wpt>
  <wpt lat="-8.28129547" lon="-35.03153675">
    <ele>9.91400146484375</ele>
    <time>2024-05-10T16:58:55Z</time>
    <name>Radar/Lombada Eletrônica</name>
    <sat>30</sat>
  </wpt>
  <wpt lat="-8.28163783" lon="-35.03184669">
    <ele>8.31060791015625</ele>
    <time>2024-05-10T17:00:16Z</time>
    <name>Pictograma MÁ condição</name>
    <sat>32</sat>
  </wpt>
  <wpt lat="-8.28163783" lon="-35.03184669">
    <ele>8.31060791015625</ele>
    <time>2024-05-10T17:00:16Z</time>
    <name>Seta MÁ condição</name>
    <sat>32</sat>
  </wpt>
  <wpt lat="-8.28173165" lon="-35.03192303">
    <ele>7.477813720703125</ele>
    <time>2024-05-10T17:00:38Z</time>
    <name>Foto</name>
    <link href="2024-05-10_14-00-38.jpg">
      <text>2024-05-10_14-00-38.jpg</text>
    </link>
    <sat>31</sat>
  </wpt>
  <wpt lat="-8.28172831" lon="-35.03192366">
    <ele>7.993682861328125</ele>
    <time>2024-05-10T17:00:43Z</time>
    <name>Em cruzamento MÁ condição</name>
    <sat>31</sat>
  </wpt>
  <wpt lat="-8.28178596" lon="-35.03195553">
    <ele>7.507965087890625</ele>
    <time>2024-05-10T17:01:05Z</time>
    <name>se provou o contrário! ciclofaixa unidirecional</name>
    <sat>30</sat>
  </wpt>
  <wpt lat="-8.2856474" lon="-35.03589832">
    <ele>9.0675048828125</ele>
    <time>2024-05-10T17:07:03Z</time>
    <name>Foto</name>
    <link href="2024-05-10_14-07-03.jpg">
      <text>2024-05-10_14-07-03.jpg</text>
    </link>
    <sat>33</sat>
  </wpt>
  <wpt lat="-8.28579173" lon="-35.03604807">
    <ele>7.55413818359375</ele>
    <time>2024-05-10T17:07:25Z</time>
    <name>Foto</name>
    <link href="2024-05-10_14-07-25.jpg">
      <text>2024-05-10_14-07-25.jpg</text>
    </link>
    <sat>33</sat>
  </wpt>
  <wpt lat="-8.28580937" lon="-35.03603128">
    <ele>6.65008544921875</ele>
    <time>2024-05-10T17:08:21Z</time>
    <name>Área transitável da ciclo (cm)</name>
    <sat>34</sat>
  </wpt>
  <wpt lat="-8.28580937" lon="-35.03603128">
    <ele>6.65008544921875</ele>
    <time>2024-05-10T17:08:21Z</time>
    <name>100</name>
    <sat>34</sat>
  </wpt>
</gpx>