<?xml version="1.0" encoding="UTF-8" standalone="yes"?>
<gpx>
  <metadata>
    <name>2024-06-17_16-54-26 Ciclofaixa ibiporã</name>
    <keywords>auditoria cicloviaria</keywords>
    <keywords>osmtracker</keywords>
    <desc>CF050</desc>
  </metadata>
  <wpt lat="-8.072845000000001" lon="-34.895035">
    <ele>8.4</ele>
    <time>2024-06-17T19:54:30Z</time>
    <name>Ciclofaixa</name>
    <sat>24</sat>
  </wpt>
  <wpt lat="-8.072855" lon="-34.89504">
    <ele>8.500000000000002</ele>
    <time>2024-06-17T19:54:35Z</time>
    <name>Unidirecional no Contrafluxo</name>
    <sat>28</sat>
  </wpt>
  <wpt lat="-8.072408333333334" lon="-34.89298833333333">
    <ele>1.0</ele>
    <time>2024-06-17T19:55:52Z</time>
    <name>Pictograma BOA condição</name>
    <sat>29</sat>
  </wpt>
  <wpt lat="-8.072408333333334" lon="-34.89298833333333">
    <ele>1.0</ele>
    <time>2024-06-17T19:55:52Z</time>
    <name>Seta BOA condição</name>
    <sat>29</sat>
  </wpt>
  <wpt lat="-8.072418333333333" lon="-34.892871666666665">
    <ele>1.0</ele>
    <time>2024-06-17T19:55:56Z</time>
    <name>Pictograma BOA condição</name>
    <sat>30</sat>
  </wpt>
  <wpt lat="-8.072418333333333" lon="-34.892871666666665">
    <ele>1.0</ele>
    <time>2024-06-17T19:55:56Z</time>
    <name>Seta BOA condição</name>
    <sat>30</sat>
  </wpt>
  <wpt lat="-8.072423333333335" lon="-34.89275666666666">
    <ele>0.09999999999999964</ele>
    <time>2024-06-17T19:56:00Z</time>
    <name>Pictograma BOA condição</name>
    <sat>29</sat>
  </wpt>
  <wpt lat="-8.072423333333335" lon="-34.89275666666666">
    <ele>0.09999999999999964</ele>
    <time>2024-06-17T19:56:00Z</time>
    <name>Seta BOA condição</name>
    <sat>29</sat>
  </wpt>
  <wpt lat="-8.072428333333333" lon="-34.89272833333334">
    <ele>-0.1999999999999993</ele>
    <time>2024-06-17T19:56:01Z</time>
    <name>Pictograma BOA condição</name>
    <sat>29</sat>
  </wpt>
  <wpt lat="-8.072428333333333" lon="-34.89272833333334">
    <ele>-0.1999999999999993</ele>
    <time>2024-06-17T19:56:01Z</time>
    <name>Seta BOA condição</name>
    <sat>29</sat>
  </wpt>
  <wpt lat="-8.07244" lon="-34.89247666666667">
    <ele>-0.1999999999999993</ele>
    <time>2024-06-17T19:56:10Z</time>
    <name>Pictograma BOA condição</name>
    <sat>29</sat>
  </wpt>
  <wpt lat="-8.07244" lon="-34.89247666666667">
    <ele>-0.1999999999999993</ele>
    <time>2024-06-17T19:56:10Z</time>
    <name>Seta BOA condição</name>
    <sat>29</sat>
  </wpt>
  <wpt lat="-8.072441666666666" lon="-34.892451666666666">
    <ele>1.5999999999999996</ele>
    <time>2024-06-17T19:56:11Z</time>
    <name>Em cruzamento BOA condição</name>
    <sat>29</sat>
  </wpt>
</gpx>