<?xml version="1.0" encoding="UTF-8" standalone="yes"?>
<gpx>
  <metadata>
    <name>2024-05-28_19-12-53</name>
    <keywords>auditoria cicloviaria</keywords>
    <keywords>osmtracker</keywords>
    <desc>CF046</desc>
  </metadata>
  <wpt lat="-8.03593079" lon="-34.90194021">
    <ele>7.68853759765625</ele>
    <time>2024-05-28T22:13:10Z</time>
    <name>Foto</name>
    <link href="2024-05-28_19-13-10.jpg">
      <text>2024-05-28_19-13-10.jpg</text>
    </link>
    <sat>25</sat>
  </wpt>
  <wpt lat="-8.03592654" lon="-34.90194062">
    <ele>9.3658447265625</ele>
    <time>2024-05-28T22:13:13Z</time>
    <name>Ciclofaixa</name>
    <sat>28</sat>
  </wpt>
  <wpt lat="-8.03593519" lon="-34.90194597">
    <ele>9.39947509765625</ele>
    <time>2024-05-28T22:13:20Z</time>
    <name>Unidirecional no Fluxo</name>
    <sat>26</sat>
  </wpt>
  <wpt lat="-8.03593602" lon="-34.90194631">
    <ele>10.980224609375</ele>
    <time>2024-05-28T22:13:24Z</time>
    <name>No bordo esquerdo de Via de Mão Única</name>
    <sat>28</sat>
  </wpt>
  <wpt lat="-8.03593615" lon="-34.90194735">
    <ele>11.1451416015625</ele>
    <time>2024-05-28T22:13:28Z</time>
    <name>Mão Única</name>
    <sat>27</sat>
  </wpt>
  <wpt lat="-8.03593618" lon="-34.90194735">
    <ele>11.151458740234375</ele>
    <time>2024-05-28T22:13:30Z</time>
    <name>Toda área de circulação pintada de vermelho</name>
    <sat>27</sat>
  </wpt>
  <wpt lat="-8.03593621" lon="-34.90194725">
    <ele>11.148162841796875</ele>
    <time>2024-05-28T22:13:33Z</time>
    <name>Tachões</name>
    <sat>27</sat>
  </wpt>
  <wpt lat="-8.03593624" lon="-34.90194711">
    <ele>11.170074462890625</ele>
    <time>2024-05-28T22:13:36Z</time>
    <name>Asfalto</name>
    <sat>25</sat>
  </wpt>
  <wpt lat="-8.0359361" lon="-34.90194695">
    <ele>11.166656494140625</ele>
    <time>2024-05-28T22:13:41Z</time>
    <name>2 faixas</name>
    <sat>22</sat>
  </wpt>
  <wpt lat="-8.03593625" lon="-34.90194671">
    <ele>11.251434326171875</ele>
    <time>2024-05-28T22:13:53Z</time>
    <name>Estacionamento de um lado, incluso na circulação</name>
    <sat>23</sat>
  </wpt>
  <wpt lat="-8.0359362" lon="-34.90194652">
    <ele>11.2952880859375</ele>
    <time>2024-05-28T22:14:01Z</time>
    <name>R-34</name>
    <sat>18</sat>
  </wpt>
  <wpt lat="-8.03590809" lon="-34.90182281">
    <ele>10.056640625</ele>
    <time>2024-05-28T22:14:16Z</time>
    <name>Pictograma BOA condição</name>
    <sat>27</sat>
  </wpt>
  <wpt lat="-8.03590809" lon="-34.90182281">
    <ele>10.056640625</ele>
    <time>2024-05-28T22:14:16Z</time>
    <name>Seta BOA condição</name>
    <sat>27</sat>
  </wpt>
  <wpt lat="-8.03575085" lon="-34.90145919">
    <ele>8.098907470703125</ele>
    <time>2024-05-28T22:14:34Z</time>
    <name>Pictograma BOA condição</name>
    <sat>20</sat>
  </wpt>
  <wpt lat="-8.03574455" lon="-34.90143863">
    <ele>6.992034912109375</ele>
    <time>2024-05-28T22:14:35Z</time>
    <name>Seta BOA condição</name>
    <sat>21</sat>
  </wpt>
  <wpt lat="-8.03565246" lon="-34.90116789">
    <ele>2.89080810546875</ele>
    <time>2024-05-28T22:14:48Z</time>
    <name>Desnível</name>
    <sat>26</sat>
  </wpt>
  <wpt lat="-8.03562484" lon="-34.90110878">
    <ele>4.34619140625</ele>
    <time>2024-05-28T22:14:51Z</time>
    <name>Pictograma BOA condição</name>
    <sat>27</sat>
  </wpt>
  <wpt lat="-8.03561475" lon="-34.90108696">
    <ele>4.11260986328125</ele>
    <time>2024-05-28T22:14:52Z</time>
    <name>Seta BOA condição</name>
    <sat>27</sat>
  </wpt>
  <wpt lat="-8.0355452" lon="-34.90091637">
    <ele>6.222625732421875</ele>
    <time>2024-05-28T22:15:09Z</time>
    <name>Foto</name>
    <link href="2024-05-28_19-15-09.jpg">
      <text>2024-05-28_19-15-09.jpg</text>
    </link>
    <sat>25</sat>
  </wpt>
  <wpt lat="-8.03554433" lon="-34.90091125">
    <ele>7.090057373046875</ele>
    <time>2024-05-28T22:15:13Z</time>
    <name>Vala profunda</name>
    <sat>26</sat>
  </wpt>
  <wpt lat="-8.03545215" lon="-34.90069453">
    <ele>1.097503662109375</ele>
    <time>2024-05-28T22:15:32Z</time>
    <name>Pictograma BOA condição</name>
    <sat>19</sat>
  </wpt>
  <wpt lat="-8.03544624" lon="-34.90068168">
    <ele>1.3173828125</ele>
    <time>2024-05-28T22:15:33Z</time>
    <name>Seta BOA condição</name>
    <sat>19</sat>
  </wpt>
  <wpt lat="-8.03538398" lon="-34.90054556">
    <ele>1.53619384765625</ele>
    <time>2024-05-28T22:15:42Z</time>
    <name>Pictograma BOA condição</name>
    <sat>20</sat>
  </wpt>
  <wpt lat="-8.03537794" lon="-34.90052954">
    <ele>3.368927001953125</ele>
    <time>2024-05-28T22:15:43Z</time>
    <name>Seta BOA condição</name>
    <sat>17</sat>
  </wpt>
  <wpt lat="-8.03532522" lon="-34.90043763">
    <ele>1.631072998046875</ele>
    <time>2024-05-28T22:15:50Z</time>
    <name>Bueiro</name>
    <sat>22</sat>
  </wpt>
  <wpt lat="-8.03530243" lon="-34.90041787">
    <ele>0.3128662109375</ele>
    <time>2024-05-28T22:15:52Z</time>
    <name>Bueiro</name>
    <sat>25</sat>
  </wpt>
  <wpt lat="-8.03526861" lon="-34.90038603">
    <ele>-0.08538818359375</ele>
    <time>2024-05-28T22:15:55Z</time>
    <name>Pictograma BOA condição</name>
    <sat>24</sat>
  </wpt>
  <wpt lat="-8.03526285" lon="-34.90037067">
    <ele>-0.611114501953125</ele>
    <time>2024-05-28T22:15:56Z</time>
    <name>Seta BOA condição</name>
    <sat>23</sat>
  </wpt>
  <wpt lat="-8.03515287" lon="-34.90029233">
    <ele>4.13592529296875</ele>
    <time>2024-05-28T22:16:08Z</time>
    <name>SE CICLOFAIXA: para invadir a ciclo parte do automóvel passa obrigatoriamente por cima de segregadores</name>
    <sat>24</sat>
  </wpt>
  <wpt lat="-8.0351663" lon="-34.90028692">
    <ele>4.155426025390625</ele>
    <time>2024-05-28T22:16:12Z</time>
    <name>Segregadores NÃO DIFICULTAM o acesso de ciclistas</name>
    <sat>24</sat>
  </wpt>
  <wpt lat="-8.03517021" lon="-34.90028379">
    <ele>3.631683349609375</ele>
    <time>2024-05-28T22:16:33Z</time>
    <name>A ciclo é completamente reta.</name>
    <sat>22</sat>
  </wpt>
  <wpt lat="-8.03517107" lon="-34.90028671">
    <ele>3.5196533203125</ele>
    <time>2024-05-28T22:16:40Z</time>
    <name>Sombras na MAIOR PARTE da extensão</name>
    <sat>22</sat>
  </wpt>
  <wpt lat="-8.03517294" lon="-34.90028858">
    <ele>3.341644287109375</ele>
    <time>2024-05-28T22:16:46Z</time>
    <name>A pintura está boa, mas FALHA em ALGUNS pontos</name>
    <sat>20</sat>
  </wpt>
  <wpt lat="-8.03517529" lon="-34.90029105">
    <ele>3.131927490234375</ele>
    <time>2024-05-28T22:17:00Z</time>
    <name>Irregularidades que demandam desvio para circulação</name>
    <sat>22</sat>
  </wpt>
  <wpt lat="-8.03517741" lon="-34.90029224">
    <ele>2.9820556640625</ele>
    <time>2024-05-28T22:17:06Z</time>
    <name>Iluminação geral dos dois lados da via</name>
    <sat>21</sat>
  </wpt>
</gpx>