<?xml version="1.0" encoding="UTF-8" standalone="yes"?>
<gpx>
  <metadata>
    <name>2024-05-10_13-43-11 ciclovia av histo. pereira da costa</name>
    <keywords>auditoria cicloviaria</keywords>
    <keywords>osmtracker</keywords>
  </metadata>
  <wpt lat="-8.27980724" lon="-35.02990852">
    <ele>9.12799072265625</ele>
    <time>2024-05-10T16:43:16Z</time>
    <name>Ciclovia</name>
    <sat>25</sat>
  </wpt>
  <wpt lat="-8.27982242" lon="-35.0298954">
    <ele>8.909942626953125</ele>
    <time>2024-05-10T16:43:24Z</time>
    <name>Bidirecional</name>
    <sat>29</sat>
  </wpt>
  <wpt lat="-8.27980713" lon="-35.0298941">
    <ele>9.936187744140625</ele>
    <time>2024-05-10T16:44:59Z</time>
    <name>Foto</name>
    <link href="2024-05-10_13-44-59.jpg">
      <text>2024-05-10_13-44-59.jpg</text>
    </link>
    <sat>27</sat>
  </wpt>
  <wpt lat="-8.27981185" lon="-35.02989401">
    <ele>10.441436767578125</ele>
    <time>2024-05-10T16:45:10Z</time>
    <name>Foto</name>
    <link href="2024-05-10_13-45-10.jpg">
      <text>2024-05-10_13-45-10.jpg</text>
    </link>
    <sat>29</sat>
  </wpt>
  <wpt lat="-8.2798204" lon="-35.029893">
    <ele>10.441802978515625</ele>
    <time>2024-05-10T16:45:11Z</time>
    <name>acesso é feito por rampa improvisada pela população (foto)</name>
    <sat>28</sat>
  </wpt>
  <wpt lat="-8.28007018" lon="-35.03021924">
    <ele>6.0982666015625</ele>
    <time>2024-05-10T16:46:14Z</time>
    <name>R-34</name>
    <sat>29</sat>
  </wpt>
  <wpt lat="-8.28046175" lon="-35.03063035">
    <ele>5.947998046875</ele>
    <time>2024-05-10T16:46:38Z</time>
    <name>Foto</name>
    <link href="2024-05-10_13-46-38.jpg">
      <text>2024-05-10_13-46-38.jpg</text>
    </link>
    <sat>28</sat>
  </wpt>
  <wpt lat="-8.28047318" lon="-35.03064581">
    <ele>5.92657470703125</ele>
    <time>2024-05-10T16:46:40Z</time>
    <name>R-34</name>
    <sat>29</sat>
  </wpt>
  <wpt lat="-8.28076282" lon="-35.03091998">
    <ele>6.513397216796875</ele>
    <time>2024-05-10T16:47:04Z</time>
    <name>Foto</name>
    <link href="2024-05-10_13-47-04.jpg">
      <text>2024-05-10_13-47-04.jpg</text>
    </link>
    <sat>31</sat>
  </wpt>
  <wpt lat="-8.28122057" lon="-35.03137877">
    <ele>6.04437255859375</ele>
    <time>2024-05-10T16:47:35Z</time>
    <name>Foto</name>
    <link href="2024-05-10_13-47-35.jpg">
      <text>2024-05-10_13-47-35.jpg</text>
    </link>
    <sat>32</sat>
  </wpt>
  <wpt lat="-8.28127642" lon="-35.03145827">
    <ele>5.499053955078125</ele>
    <time>2024-05-10T16:47:48Z</time>
    <name>se torna ciclofaixa ao mesmo tempo que passa em cruzamento elevado</name>
    <sat>31</sat>
  </wpt>
  <wpt lat="-8.28127748" lon="-35.0314561">
    <ele>7.905792236328125</ele>
    <time>2024-05-10T16:48:20Z</time>
    <name>Foto</name>
    <link href="2024-05-10_13-48-20.jpg">
      <text>2024-05-10_13-48-20.jpg</text>
    </link>
    <sat>30</sat>
  </wpt>
  <wpt lat="-8.28107913" lon="-35.0312439">
    <ele>6.135284423828125</ele>
    <time>2024-05-10T16:49:35Z</time>
    <name>Área transitável da ciclo (cm)</name>
    <sat>30</sat>
  </wpt>
  <wpt lat="-8.28107828" lon="-35.0312423">
    <ele>6.470367431640625</ele>
    <time>2024-05-10T16:49:36Z</time>
    <name>121</name>
    <sat>30</sat>
  </wpt>
  <wpt lat="-8.2810722" lon="-35.03123804">
    <ele>6.968414306640625</ele>
    <time>2024-05-10T16:49:41Z</time>
    <name>Área de amortecimento da ciclo (cm)</name>
    <sat>30</sat>
  </wpt>
  <wpt lat="-8.2810722" lon="-35.03123804">
    <ele>6.968414306640625</ele>
    <time>2024-05-10T16:49:41Z</time>
    <name>18</name>
    <sat>30</sat>
  </wpt>
  <wpt lat="-8.28106974" lon="-35.03123742">
    <ele>6.113983154296875</ele>
    <time>2024-05-10T16:49:47Z</time>
    <name>Gravação de voz</name>
    <link href="2024-05-10_13-49-46.3gpp">
      <text>2024-05-10_13-49-46.3gpp</text>
    </link>
    <sat>30</sat>
  </wpt>
  <wpt lat="-8.28107466" lon="-35.03124244">
    <ele>5.626434326171875</ele>
    <time>2024-05-10T16:50:02Z</time>
    <name>Gravação de voz</name>
    <link href="2024-05-10_13-50-01.3gpp">
      <text>2024-05-10_13-50-01.3gpp</text>
    </link>
    <sat>30</sat>
  </wpt>
  <wpt lat="-8.28107842" lon="-35.03123854">
    <ele>7.186798095703125</ele>
    <time>2024-05-10T16:50:44Z</time>
    <name>Foto</name>
    <link href="2024-05-10_13-50-44.jpg">
      <text>2024-05-10_13-50-44.jpg</text>
    </link>
    <sat>31</sat>
  </wpt>
  <wpt lat="-8.28108185" lon="-35.03124495">
    <ele>5.688446044921875</ele>
    <time>2024-05-10T16:51:12Z</time>
    <name>SE CICLOVIA: segregação impede completamente a invasão de automóvel e não há trechos desprotegidos</name>
    <sat>31</sat>
  </wpt>
  <wpt lat="-8.28108011" lon="-35.03124496">
    <ele>5.71966552734375</ele>
    <time>2024-05-10T16:51:14Z</time>
    <name>Segregadores DIFICULTAM o acesso parcialmente de ciclistas</name>
    <sat>31</sat>
  </wpt>
  <wpt lat="-8.28108013" lon="-35.03124539">
    <ele>5.881317138671875</ele>
    <time>2024-05-10T16:51:18Z</time>
    <name>A ciclo é completamente reta.</name>
    <sat>30</sat>
  </wpt>
  <wpt lat="-8.28107965" lon="-35.0312462">
    <ele>5.985687255859375</ele>
    <time>2024-05-10T16:51:28Z</time>
    <name>Sombras em PRATICAMENTE TODA a extensão</name>
    <sat>31</sat>
  </wpt>
  <wpt lat="-8.28107954" lon="-35.03124622">
    <ele>5.998870849609375</ele>
    <time>2024-05-10T16:51:32Z</time>
    <name>A pintura está boa, mas FALHA em ALGUNS pontos</name>
    <sat>31</sat>
  </wpt>
  <wpt lat="-8.28107948" lon="-35.03124624">
    <ele>6.010284423828125</ele>
    <time>2024-05-10T16:51:36Z</time>
    <name>Bom estado</name>
    <sat>30</sat>
  </wpt>
  <wpt lat="-8.28107941" lon="-35.03124624">
    <ele>6.019317626953125</ele>
    <time>2024-05-10T16:51:42Z</time>
    <name>Iluminação dedicada para ciclistas</name>
    <sat>31</sat>
  </wpt>
</gpx>