<?xml version="1.0" encoding="UTF-8" standalone="yes"?>
<gpx>
  <metadata>
    <name>2024-05-01_08-46-22</name>
    <keywords>auditoria cicloviaria</keywords>
    <keywords>osmtracker</keywords>
    <desc>CF044</desc>
  </metadata>
  <wpt lat="-8.0312707" lon="-34.93063476">
    <ele>4.003509521484375</ele>
    <time>2024-05-01T11:46:39Z</time>
    <name>Ciclofaixa</name>
    <sat>26</sat>
  </wpt>
  <wpt lat="-8.03120623" lon="-34.93059558">
    <ele>4.8970947265625</ele>
    <time>2024-05-01T11:47:03Z</time>
    <name>Unidirecional no Fluxo</name>
    <sat>25</sat>
  </wpt>
  <wpt lat="-8.03120611" lon="-34.93060286">
    <ele>4.6998291015625</ele>
    <time>2024-05-01T11:47:20Z</time>
    <name>Na via, junto ao canteiro</name>
    <sat>26</sat>
  </wpt>
  <wpt lat="-8.03118959" lon="-34.93058374">
    <ele>5.038116455078125</ele>
    <time>2024-05-01T11:47:47Z</time>
    <name>Mão Única</name>
    <sat>20</sat>
  </wpt>
  <wpt lat="-8.03107549" lon="-34.93067909">
    <ele>4.7406005859375</ele>
    <time>2024-05-01T11:48:10Z</time>
    <name>Toda área de circulação pintada de vermelho</name>
    <sat>26</sat>
  </wpt>
  <wpt lat="-8.03103187" lon="-34.93068855">
    <ele>4.644012451171875</ele>
    <time>2024-05-01T11:48:16Z</time>
    <name>Tachões</name>
    <sat>26</sat>
  </wpt>
  <wpt lat="-8.03101393" lon="-34.93069535">
    <ele>4.984466552734375</ele>
    <time>2024-05-01T11:48:19Z</time>
    <name>Asfalto</name>
    <sat>24</sat>
  </wpt>
  <wpt lat="-8.03099317" lon="-34.93069284">
    <ele>6.049285888671875</ele>
    <time>2024-05-01T11:48:33Z</time>
    <name>2 faixas</name>
    <sat>26</sat>
  </wpt>
  <wpt lat="-8.03098817" lon="-34.93069549">
    <ele>6.05804443359375</ele>
    <time>2024-05-01T11:48:40Z</time>
    <name>Estacionamento de um lado, incluso na circulação</name>
    <sat>26</sat>
  </wpt>
  <wpt lat="-8.03093077" lon="-34.93077165">
    <ele>4.98681640625</ele>
    <time>2024-05-01T11:49:24Z</time>
    <name>Total da via (incluindo a ciclo) (cm)</name>
    <sat>24</sat>
  </wpt>
  <wpt lat="-8.03093075" lon="-34.93077069">
    <ele>5.00421142578125</ele>
    <time>2024-05-01T11:49:25Z</time>
    <name>650</name>
    <sat>26</sat>
  </wpt>
  <wpt lat="-8.03093028" lon="-34.93076961">
    <ele>5.06988525390625</ele>
    <time>2024-05-01T11:49:41Z</time>
    <name>Faixa de carros logo ao lado da ciclo (cm)</name>
    <sat>25</sat>
  </wpt>
  <wpt lat="-8.03093027" lon="-34.93076959">
    <ele>5.073150634765625</ele>
    <time>2024-05-01T11:49:42Z</time>
    <name>220</name>
    <sat>26</sat>
  </wpt>
  <wpt lat="-8.03093019" lon="-34.93076874">
    <ele>5.6319580078125</ele>
    <time>2024-05-01T11:50:06Z</time>
    <name>Área de amortecimento da ciclo (cm)</name>
    <sat>24</sat>
  </wpt>
  <wpt lat="-8.03093105" lon="-34.93076817">
    <ele>5.63214111328125</ele>
    <time>2024-05-01T11:50:07Z</time>
    <name>25</name>
    <sat>25</sat>
  </wpt>
  <wpt lat="-8.03092502" lon="-34.93076908">
    <ele>5.851470947265625</ele>
    <time>2024-05-01T11:50:29Z</time>
    <name>Área transitável da ciclo (cm)</name>
    <sat>26</sat>
  </wpt>
  <wpt lat="-8.030925" lon="-34.93076906">
    <ele>5.86016845703125</ele>
    <time>2024-05-01T11:50:30Z</time>
    <name>120</name>
    <sat>26</sat>
  </wpt>
  <wpt lat="-8.03119072" lon="-34.93059024">
    <ele>8.146697998046875</ele>
    <time>2024-05-01T11:52:13Z</time>
    <name>Foto</name>
    <link href="2024-05-01_08-52-13.jpg">
      <text>2024-05-01_08-52-13.jpg</text>
    </link>
    <sat>26</sat>
  </wpt>
  <wpt lat="-8.03119031" lon="-34.93058907">
    <ele>7.884490966796875</ele>
    <time>2024-05-01T11:52:14Z</time>
    <name>ciclofaixa já inicia com canteiro destruído </name>
    <sat>26</sat>
  </wpt>
  <wpt lat="-8.03108223" lon="-34.93068244">
    <ele>7.6976318359375</ele>
    <time>2024-05-01T11:52:55Z</time>
    <name>Foto</name>
    <link href="2024-05-01_08-52-55.jpg">
      <text>2024-05-01_08-52-55.jpg</text>
    </link>
    <sat>26</sat>
  </wpt>
  <wpt lat="-8.03072014" lon="-34.93088859">
    <ele>8.01934814453125</ele>
    <time>2024-05-01T11:53:25Z</time>
    <name>Pictograma MÁ condição</name>
    <sat>24</sat>
  </wpt>
  <wpt lat="-8.03072052" lon="-34.93088927">
    <ele>7.638641357421875</ele>
    <time>2024-05-01T11:53:26Z</time>
    <name>Seta MÁ condição</name>
    <sat>24</sat>
  </wpt>
  <wpt lat="-8.03072222" lon="-34.93089046">
    <ele>7.443939208984375</ele>
    <time>2024-05-01T11:53:30Z</time>
    <name>Em cruzamento MÁ condição</name>
    <sat>22</sat>
  </wpt>
  <wpt lat="-8.03062955" lon="-34.93095673">
    <ele>7.3599853515625</ele>
    <time>2024-05-01T11:53:53Z</time>
    <name>Foto</name>
    <link href="2024-05-01_08-53-53.jpg">
      <text>2024-05-01_08-53-53.jpg</text>
    </link>
    <sat>18</sat>
  </wpt>
  <wpt lat="-8.03045348" lon="-34.93107107">
    <ele>3.722808837890625</ele>
    <time>2024-05-01T11:54:18Z</time>
    <name>Foto</name>
    <link href="2024-05-01_08-54-18.jpg">
      <text>2024-05-01_08-54-18.jpg</text>
    </link>
    <sat>23</sat>
  </wpt>
  <wpt lat="-8.03045612" lon="-34.93106963">
    <ele>4.47918701171875</ele>
    <time>2024-05-01T11:54:22Z</time>
    <name>30km/h</name>
    <sat>23</sat>
  </wpt>
  <wpt lat="-8.03027356" lon="-34.93117817">
    <ele>6.591217041015625</ele>
    <time>2024-05-01T11:54:47Z</time>
    <name>Foto</name>
    <link href="2024-05-01_08-54-47.jpg">
      <text>2024-05-01_08-54-47.jpg</text>
    </link>
    <sat>22</sat>
  </wpt>
  <wpt lat="-8.02959592" lon="-34.93165158">
    <ele>3.703826904296875</ele>
    <time>2024-05-01T11:55:31Z</time>
    <name>Pictograma MÁ condição</name>
    <sat>25</sat>
  </wpt>
  <wpt lat="-8.0295942" lon="-34.93165176">
    <ele>4.18182373046875</ele>
    <time>2024-05-01T11:55:32Z</time>
    <name>Seta MÁ condição</name>
    <sat>22</sat>
  </wpt>
  <wpt lat="-8.02959284" lon="-34.93165165">
    <ele>4.3133544921875</ele>
    <time>2024-05-01T11:55:33Z</time>
    <name>Em cruzamento MÁ condição</name>
    <sat>22</sat>
  </wpt>
  <wpt lat="-8.02959207" lon="-34.93165003">
    <ele>4.300384521484375</ele>
    <time>2024-05-01T11:55:45Z</time>
    <name>Foto</name>
    <link href="2024-05-01_08-55-45.jpg">
      <text>2024-05-01_08-55-45.jpg</text>
    </link>
    <sat>16</sat>
  </wpt>
  <wpt lat="-8.02959212" lon="-34.93165002">
    <ele>4.30499267578125</ele>
    <time>2024-05-01T11:55:46Z</time>
    <name>cruzamento com pintura muito ruim</name>
    <sat>19</sat>
  </wpt>
  <wpt lat="-8.02959208" lon="-34.93165011">
    <ele>4.350433349609375</ele>
    <time>2024-05-01T11:56:17Z</time>
    <name>A-30</name>
    <sat>21</sat>
  </wpt>
  <wpt lat="-8.02951051" lon="-34.93169773">
    <ele>2.74786376953125</ele>
    <time>2024-05-01T11:56:34Z</time>
    <name>A-30</name>
    <sat>19</sat>
  </wpt>
  <wpt lat="-8.02939497" lon="-34.93177631">
    <ele>2.439453125</ele>
    <time>2024-05-01T11:56:49Z</time>
    <name>Pictograma BOA condição</name>
    <sat>24</sat>
  </wpt>
  <wpt lat="-8.02939342" lon="-34.93177851">
    <ele>2.505950927734375</ele>
    <time>2024-05-01T11:56:52Z</time>
    <name>Em cruzamento BOA condição</name>
    <sat>24</sat>
  </wpt>
  <wpt lat="-8.02938905" lon="-34.93177762">
    <ele>2.92266845703125</ele>
    <time>2024-05-01T11:57:22Z</time>
    <name>Outro obstáculo</name>
    <sat>15</sat>
  </wpt>
  <wpt lat="-8.02938915" lon="-34.93177756">
    <ele>2.90362548828125</ele>
    <time>2024-05-01T11:57:23Z</time>
    <name>resto de uma lombada passando apenas pela ciclofaixa. </name>
    <sat>9</sat>
  </wpt>
  <wpt lat="-8.0293863" lon="-34.93176293">
    <ele>2.686859130859375</ele>
    <time>2024-05-01T11:58:20Z</time>
    <name>Foto</name>
    <link href="2024-05-01_08-58-20.jpg">
      <text>2024-05-01_08-58-20.jpg</text>
    </link>
    <sat>17</sat>
  </wpt>
  <wpt lat="-8.02930164" lon="-34.93181911">
    <ele>0.70233154296875</ele>
    <time>2024-05-01T11:58:42Z</time>
    <name>Lombadas físicas</name>
    <sat>18</sat>
  </wpt>
  <wpt lat="-8.02923076" lon="-34.93189862">
    <ele>2.320404052734375</ele>
    <time>2024-05-01T11:59:45Z</time>
    <name>Total da via (incluindo a ciclo) (cm)</name>
    <sat>22</sat>
  </wpt>
  <wpt lat="-8.02923076" lon="-34.93189862">
    <ele>2.320404052734375</ele>
    <time>2024-05-01T11:59:45Z</time>
    <name>660</name>
    <sat>22</sat>
  </wpt>
  <wpt lat="-8.0292307" lon="-34.93189858">
    <ele>2.296539306640625</ele>
    <time>2024-05-01T11:59:52Z</time>
    <name>Faixa de carros logo ao lado da ciclo (cm)</name>
    <sat>16</sat>
  </wpt>
  <wpt lat="-8.0292307" lon="-34.93189858">
    <ele>2.296539306640625</ele>
    <time>2024-05-01T11:59:52Z</time>
    <name>220</name>
    <sat>16</sat>
  </wpt>
  <wpt lat="-8.02923066" lon="-34.93189861">
    <ele>2.29949951171875</ele>
    <time>2024-05-01T11:59:57Z</time>
    <name>Área de amortecimento da ciclo (cm)</name>
    <sat>10</sat>
  </wpt>
  <wpt lat="-8.02923067" lon="-34.9318986">
    <ele>2.2967529296875</ele>
    <time>2024-05-01T11:59:58Z</time>
    <name>25</name>
    <sat>13</sat>
  </wpt>
  <wpt lat="-8.02923067" lon="-34.93189861">
    <ele>2.311279296875</ele>
    <time>2024-05-01T12:00:02Z</time>
    <name>Área transitável da ciclo (cm)</name>
    <sat>15</sat>
  </wpt>
  <wpt lat="-8.02923065" lon="-34.93189862">
    <ele>2.313751220703125</ele>
    <time>2024-05-01T12:00:03Z</time>
    <name>120</name>
    <sat>16</sat>
  </wpt>
  <wpt lat="-8.02922059" lon="-34.93189885">
    <ele>2.60174560546875</ele>
    <time>2024-05-01T12:01:43Z</time>
    <name>Foto</name>
    <link href="2024-05-01_09-01-43.jpg">
      <text>2024-05-01_09-01-43.jpg</text>
    </link>
    <sat>23</sat>
  </wpt>
  <wpt lat="-8.0291725" lon="-34.93191868">
    <ele>6.41680908203125</ele>
    <time>2024-05-01T12:01:58Z</time>
    <name>Lombadas físicas</name>
    <sat>25</sat>
  </wpt>
  <wpt lat="-8.02898359" lon="-34.93206172">
    <ele>7.299163818359375</ele>
    <time>2024-05-01T12:02:27Z</time>
    <name>Pictograma MÁ condição</name>
    <sat>24</sat>
  </wpt>
  <wpt lat="-8.02898116" lon="-34.93206067">
    <ele>8.238555908203125</ele>
    <time>2024-05-01T12:02:29Z</time>
    <name>Seta MÁ condição</name>
    <sat>22</sat>
  </wpt>
  <wpt lat="-8.02868004" lon="-34.9325321">
    <ele>4.272979736328125</ele>
    <time>2024-05-01T12:03:44Z</time>
    <name>AMBAS: Poucos trechos COM segregadores. Automóvel consegue passar POR ENTRE estes com facilidade.</name>
    <sat>15</sat>
  </wpt>
  <wpt lat="-8.02868003" lon="-34.93253215">
    <ele>4.300445556640625</ele>
    <time>2024-05-01T12:03:48Z</time>
    <name>A ciclo é completamente reta.</name>
    <sat>15</sat>
  </wpt>
  <wpt lat="-8.02867996" lon="-34.93253264">
    <ele>4.443634033203125</ele>
    <time>2024-05-01T12:04:02Z</time>
    <name>Somente mudas novas</name>
    <sat>13</sat>
  </wpt>
  <wpt lat="-8.02867973" lon="-34.93253258">
    <ele>4.525543212890625</ele>
    <time>2024-05-01T12:04:08Z</time>
    <name>A pintura é MUITO falha, mostrando muito asfalto</name>
    <sat>11</sat>
  </wpt>
  <wpt lat="-8.02867949" lon="-34.93253287">
    <ele>4.57232666015625</ele>
    <time>2024-05-01T12:04:12Z</time>
    <name>Pequenas imperfeições, como fissuras</name>
    <sat>12</sat>
  </wpt>
  <wpt lat="-8.02867983" lon="-34.93253368">
    <ele>4.874542236328125</ele>
    <time>2024-05-01T12:04:32Z</time>
    <name>Iluminação geral na via do outro lado da infraestrutura</name>
    <sat>15</sat>
  </wpt>
</gpx>