<?xml version="1.0" encoding="UTF-8" standalone="yes"?>
<gpx>
  <metadata>
    <name>2024-05-25_17-02-10</name>
    <keywords>auditoria cicloviaria</keywords>
    <keywords>osmtracker</keywords>
    <desc>CF072</desc>
  </metadata>
  <wpt lat="-8.03199062" lon="-34.87594444">
    <ele>3.628631591796875</ele>
    <time>2024-05-25T20:02:21Z</time>
    <name>Ciclofaixa</name>
    <sat>25</sat>
  </wpt>
  <wpt lat="-8.03199085" lon="-34.87594737">
    <ele>3.85186767578125</ele>
    <time>2024-05-25T20:02:24Z</time>
    <name>Bidirecional</name>
    <sat>25</sat>
  </wpt>
  <wpt lat="-8.03199068" lon="-34.87594789">
    <ele>3.920806884765625</ele>
    <time>2024-05-25T20:02:32Z</time>
    <name>Em bordo de Via de Mão Dupla</name>
    <sat>24</sat>
  </wpt>
  <wpt lat="-8.03199059" lon="-34.87594695">
    <ele>3.958099365234375</ele>
    <time>2024-05-25T20:02:38Z</time>
    <name>Mão Dupla</name>
    <sat>25</sat>
  </wpt>
  <wpt lat="-8.03199055" lon="-34.8759469">
    <ele>3.97271728515625</ele>
    <time>2024-05-25T20:02:41Z</time>
    <name>Toda área de circulação pintada de vermelho</name>
    <sat>25</sat>
  </wpt>
  <wpt lat="-8.03199055" lon="-34.87594702">
    <ele>3.987579345703125</ele>
    <time>2024-05-25T20:02:46Z</time>
    <name>Tachões</name>
    <sat>26</sat>
  </wpt>
  <wpt lat="-8.03199055" lon="-34.87594704">
    <ele>3.986236572265625</ele>
    <time>2024-05-25T20:02:48Z</time>
    <name>Asfalto</name>
    <sat>26</sat>
  </wpt>
  <wpt lat="-8.03199043" lon="-34.87594705">
    <ele>3.99615478515625</ele>
    <time>2024-05-25T20:02:52Z</time>
    <name>2 faixas</name>
    <sat>25</sat>
  </wpt>
  <wpt lat="-8.03199039" lon="-34.87594706">
    <ele>4.0040283203125</ele>
    <time>2024-05-25T20:02:59Z</time>
    <name>Estacionamento de um lado, incluso na circulação</name>
    <sat>24</sat>
  </wpt>
  <wpt lat="-8.03199049" lon="-34.87594712">
    <ele>4.02789306640625</ele>
    <time>2024-05-25T20:03:03Z</time>
    <name>30km/h</name>
    <sat>26</sat>
  </wpt>
  <wpt lat="-8.0321039" lon="-34.8759165">
    <ele>3.542144775390625</ele>
    <time>2024-05-25T20:03:14Z</time>
    <name>Desnível</name>
    <sat>26</sat>
  </wpt>
  <wpt lat="-8.03218529" lon="-34.87590045">
    <ele>3.536590576171875</ele>
    <time>2024-05-25T20:03:18Z</time>
    <name>Desnível</name>
    <sat>25</sat>
  </wpt>
  <wpt lat="-8.03265457" lon="-34.87575028">
    <ele>1.9478759765625</ele>
    <time>2024-05-25T20:03:40Z</time>
    <name>Foto</name>
    <link href="2024-05-25_17-03-40.jpg">
      <text>2024-05-25_17-03-40.jpg</text>
    </link>
    <sat>25</sat>
  </wpt>
  <wpt lat="-8.03277185" lon="-34.87572682">
    <ele>1.81658935546875</ele>
    <time>2024-05-25T20:03:46Z</time>
    <name>Pictograma BOA condição</name>
    <sat>26</sat>
  </wpt>
  <wpt lat="-8.03281196" lon="-34.87570772">
    <ele>2.066558837890625</ele>
    <time>2024-05-25T20:03:48Z</time>
    <name>Seta BOA condição</name>
    <sat>26</sat>
  </wpt>
  <wpt lat="-8.03288699" lon="-34.87567762">
    <ele>3.24969482421875</ele>
    <time>2024-05-25T20:03:52Z</time>
    <name>Ponto de embarque de ônibus interrompe a ciclo</name>
    <sat>26</sat>
  </wpt>
  <wpt lat="-8.0330149" lon="-34.8756423">
    <ele>1.1746826171875</ele>
    <time>2024-05-25T20:04:13Z</time>
    <name>Em cruzamento BOA condição</name>
    <sat>25</sat>
  </wpt>
  <wpt lat="-8.03298602" lon="-34.87565625">
    <ele>0.713134765625</ele>
    <time>2024-05-25T20:04:42Z</time>
    <name>827</name>
    <sat>26</sat>
  </wpt>
  <wpt lat="-8.03295698" lon="-34.87567399">
    <ele>2.318328857421875</ele>
    <time>2024-05-25T20:04:47Z</time>
    <name>Total da via (incluindo a ciclo) (cm)</name>
    <sat>26</sat>
  </wpt>
  <wpt lat="-8.03284814" lon="-34.87570877">
    <ele>4.179718017578125</ele>
    <time>2024-05-25T20:05:43Z</time>
    <name>582</name>
    <sat>26</sat>
  </wpt>
  <wpt lat="-8.0328469" lon="-34.87570567">
    <ele>4.19183349609375</ele>
    <time>2024-05-25T20:05:48Z</time>
    <name>Faixa de carros logo ao lado da ciclo (cm)</name>
    <sat>25</sat>
  </wpt>
  <wpt lat="-8.0328469" lon="-34.87570567">
    <ele>4.19183349609375</ele>
    <time>2024-05-25T20:05:48Z</time>
    <name>25</name>
    <sat>25</sat>
  </wpt>
  <wpt lat="-8.03284722" lon="-34.8757056">
    <ele>4.189788818359375</ele>
    <time>2024-05-25T20:05:52Z</time>
    <name>Área de amortecimento da ciclo (cm)</name>
    <sat>26</sat>
  </wpt>
  <wpt lat="-8.03284726" lon="-34.8757056">
    <ele>4.188629150390625</ele>
    <time>2024-05-25T20:05:53Z</time>
    <name>220</name>
    <sat>26</sat>
  </wpt>
  <wpt lat="-8.03284739" lon="-34.87570557">
    <ele>4.185150146484375</ele>
    <time>2024-05-25T20:05:56Z</time>
    <name>Área transitável da ciclo (cm)</name>
    <sat>24</sat>
  </wpt>
  <wpt lat="-8.03308418" lon="-34.8756199">
    <ele>-1.007720947265625</ele>
    <time>2024-05-25T20:06:36Z</time>
    <name>Pictograma MÁ condição</name>
    <sat>26</sat>
  </wpt>
  <wpt lat="-8.03310264" lon="-34.87560782">
    <ele>-0.559326171875</ele>
    <time>2024-05-25T20:06:37Z</time>
    <name>Seta MÁ condição</name>
    <sat>26</sat>
  </wpt>
  <wpt lat="-8.03329197" lon="-34.87552037">
    <ele>-2.315032958984375</ele>
    <time>2024-05-25T20:06:47Z</time>
    <name>Desnível</name>
    <sat>25</sat>
  </wpt>
  <wpt lat="-8.03340183" lon="-34.87548055">
    <ele>0.2999267578125</ele>
    <time>2024-05-25T20:06:53Z</time>
    <name>Desnível</name>
    <sat>25</sat>
  </wpt>
  <wpt lat="-8.03343523" lon="-34.8754659">
    <ele>0.205291748046875</ele>
    <time>2024-05-25T20:06:55Z</time>
    <name>Pictograma MÁ condição</name>
    <sat>25</sat>
  </wpt>
  <wpt lat="-8.03345036" lon="-34.87545843">
    <ele>0.45941162109375</ele>
    <time>2024-05-25T20:06:56Z</time>
    <name>Seta MÁ condição</name>
    <sat>25</sat>
  </wpt>
  <wpt lat="-8.03350275" lon="-34.8754373">
    <ele>-0.2470703125</ele>
    <time>2024-05-25T20:07:00Z</time>
    <name>Desnível</name>
    <sat>25</sat>
  </wpt>
  <wpt lat="-8.03363845" lon="-34.8753938">
    <ele>-0.485870361328125</ele>
    <time>2024-05-25T20:07:08Z</time>
    <name>Pictograma MÁ condição</name>
    <sat>25</sat>
  </wpt>
  <wpt lat="-8.03364984" lon="-34.87538934">
    <ele>-0.261199951171875</ele>
    <time>2024-05-25T20:07:09Z</time>
    <name>Seta MÁ condição</name>
    <sat>25</sat>
  </wpt>
  <wpt lat="-8.03366367" lon="-34.87538806">
    <ele>2.629119873046875</ele>
    <time>2024-05-25T20:07:24Z</time>
    <name>Foto</name>
    <link href="2024-05-25_17-07-24.jpg">
      <text>2024-05-25_17-07-24.jpg</text>
    </link>
    <sat>25</sat>
  </wpt>
  <wpt lat="-8.03374114" lon="-34.87535673">
    <ele>0.479949951171875</ele>
    <time>2024-05-25T20:07:37Z</time>
    <name>Pictograma MÁ condição</name>
    <sat>26</sat>
  </wpt>
  <wpt lat="-8.03373902" lon="-34.87535748">
    <ele>0.599853515625</ele>
    <time>2024-05-25T20:07:38Z</time>
    <name>Seta MÁ condição</name>
    <sat>26</sat>
  </wpt>
  <wpt lat="-8.03378252" lon="-34.87534222">
    <ele>3.43359375</ele>
    <time>2024-05-25T20:08:26Z</time>
    <name>203</name>
    <sat>25</sat>
  </wpt>
  <wpt lat="-8.0337848" lon="-34.87534035">
    <ele>3.339813232421875</ele>
    <time>2024-05-25T20:08:30Z</time>
    <name>25</name>
    <sat>23</sat>
  </wpt>
  <wpt lat="-8.03378445" lon="-34.8753413">
    <ele>3.7337646484375</ele>
    <time>2024-05-25T20:08:33Z</time>
    <name>Área de amortecimento da ciclo (cm)</name>
    <sat>23</sat>
  </wpt>
  <wpt lat="-8.03378445" lon="-34.8753413">
    <ele>3.7337646484375</ele>
    <time>2024-05-25T20:08:33Z</time>
    <name>Área transitável da ciclo (cm)</name>
    <sat>23</sat>
  </wpt>
  <wpt lat="-8.03377253" lon="-34.87534044">
    <ele>3.709808349609375</ele>
    <time>2024-05-25T20:08:43Z</time>
    <name>SE CICLOFAIXA: para invadir a ciclo parte do automóvel passa obrigatoriamente por cima de segregadores</name>
    <sat>25</sat>
  </wpt>
  <wpt lat="-8.03377363" lon="-34.87534133">
    <ele>4.143157958984375</ele>
    <time>2024-05-25T20:08:45Z</time>
    <name>Segregadores NÃO DIFICULTAM o acesso de ciclistas</name>
    <sat>25</sat>
  </wpt>
  <wpt lat="-8.03377274" lon="-34.87534269">
    <ele>4.251678466796875</ele>
    <time>2024-05-25T20:08:49Z</time>
    <name>A ciclo é completamente reta.</name>
    <sat>23</sat>
  </wpt>
  <wpt lat="-8.03377319" lon="-34.87534587">
    <ele>4.09185791015625</ele>
    <time>2024-05-25T20:08:54Z</time>
    <name>Sombras na MAIOR PARTE da extensão</name>
    <sat>24</sat>
  </wpt>
  <wpt lat="-8.0337784" lon="-34.8753533">
    <ele>3.93707275390625</ele>
    <time>2024-05-25T20:09:04Z</time>
    <name>A pintura é falha em VÁRIOS pontos</name>
    <sat>22</sat>
  </wpt>
  <wpt lat="-8.03377873" lon="-34.87535316">
    <ele>4.1026611328125</ele>
    <time>2024-05-25T20:09:09Z</time>
    <name>Irregularidades que demandam desvio para circulação</name>
    <sat>24</sat>
  </wpt>
  <wpt lat="-8.03376419" lon="-34.87535712">
    <ele>3.541717529296875</ele>
    <time>2024-05-25T20:09:27Z</time>
    <name>Iluminação geral na via do mesmo lado da estrutura</name>
    <sat>25</sat>
  </wpt>
</gpx>