<?xml version="1.0" encoding="UTF-8" standalone="yes"?>
<gpx>
  <metadata>
    <name>2024-04-18_14-15-17 ciclofaixa paralela antonio falcao</name>
    <keywords>auditoria cicloviaria</keywords>
    <keywords>osmtracker</keywords>
    <desc>CF052</desc>
  </metadata>
  <wpt lat="-8.11530134" lon="-34.89680541">
    <ele>-4.9813232421875</ele>
    <time>2024-04-18T17:15:25Z</time>
    <name>Ciclofaixa</name>
    <sat>22</sat>
  </wpt>
  <wpt lat="-8.11528012" lon="-34.89677471">
    <ele>-6.035888671875</ele>
    <time>2024-04-18T17:15:28Z</time>
    <name>Unidirecional no Contrafluxo</name>
    <sat>25</sat>
  </wpt>
  <wpt lat="-8.1152685" lon="-34.89675294">
    <ele>-3.386505126953125</ele>
    <time>2024-04-18T17:15:33Z</time>
    <name>No bordo direito de Via de Mão Única</name>
    <sat>25</sat>
  </wpt>
  <wpt lat="-8.11526814" lon="-34.89675151">
    <ele>-3.76593017578125</ele>
    <time>2024-04-18T17:15:35Z</time>
    <name>Mão Única</name>
    <sat>25</sat>
  </wpt>
  <wpt lat="-8.11526688" lon="-34.89675155">
    <ele>-3.27825927734375</ele>
    <time>2024-04-18T17:15:42Z</time>
    <name>Toda área de circulação pintada de vermelho</name>
    <sat>26</sat>
  </wpt>
  <wpt lat="-8.11526665" lon="-34.89675151">
    <ele>-3.126007080078125</ele>
    <time>2024-04-18T17:15:45Z</time>
    <name>Tachões</name>
    <sat>25</sat>
  </wpt>
  <wpt lat="-8.11526643" lon="-34.89675181">
    <ele>-2.71453857421875</ele>
    <time>2024-04-18T17:15:50Z</time>
    <name>Asfalto</name>
    <sat>28</sat>
  </wpt>
  <wpt lat="-8.11526623" lon="-34.89675224">
    <ele>-2.483489990234375</ele>
    <time>2024-04-18T17:15:53Z</time>
    <name>1 faixa</name>
    <sat>27</sat>
  </wpt>
  <wpt lat="-8.11526541" lon="-34.89675237">
    <ele>-2.204071044921875</ele>
    <time>2024-04-18T17:15:59Z</time>
    <name>Estacionamento de um lado, incluso na circulação</name>
    <sat>26</sat>
  </wpt>
  <wpt lat="-8.1153129" lon="-34.89676774">
    <ele>0.0316162109375</ele>
    <time>2024-04-18T17:16:40Z</time>
    <name>Foto</name>
    <link href="2024-04-18_14-16-40.jpg">
      <text>2024-04-18_14-16-40.jpg</text>
    </link>
    <sat>23</sat>
  </wpt>
  <wpt lat="-8.1153244" lon="-34.89677493">
    <ele>0.070709228515625</ele>
    <time>2024-04-18T17:16:45Z</time>
    <name>Área transitável da ciclo (cm)</name>
    <sat>24</sat>
  </wpt>
  <wpt lat="-8.11532349" lon="-34.89677884">
    <ele>-0.313629150390625</ele>
    <time>2024-04-18T17:16:47Z</time>
    <name>107</name>
    <sat>24</sat>
  </wpt>
  <wpt lat="-8.11532275" lon="-34.89678046">
    <ele>0.45001220703125</ele>
    <time>2024-04-18T17:16:52Z</time>
    <name>Área de amortecimento da ciclo (cm)</name>
    <sat>23</sat>
  </wpt>
  <wpt lat="-8.11532275" lon="-34.89678046">
    <ele>0.45001220703125</ele>
    <time>2024-04-18T17:16:52Z</time>
    <name>25</name>
    <sat>23</sat>
  </wpt>
  <wpt lat="-8.11532387" lon="-34.89677932">
    <ele>2.615478515625</ele>
    <time>2024-04-18T17:17:24Z</time>
    <name>Total da via (incluindo a ciclo) (cm)</name>
    <sat>22</sat>
  </wpt>
  <wpt lat="-8.11531987" lon="-34.89677658">
    <ele>2.19580078125</ele>
    <time>2024-04-18T17:17:25Z</time>
    <name>645</name>
    <sat>23</sat>
  </wpt>
  <wpt lat="-8.11593857" lon="-34.89714661">
    <ele>-1.726318359375</ele>
    <time>2024-04-18T17:18:42Z</time>
    <name>Em cruzamento BOA condição</name>
    <sat>24</sat>
  </wpt>
  <wpt lat="-8.11729095" lon="-34.89684971">
    <ele>-0.68792724609375</ele>
    <time>2024-04-18T17:20:21Z</time>
    <name>Foto</name>
    <link href="2024-04-18_14-20-21.jpg">
      <text>2024-04-18_14-20-21.jpg</text>
    </link>
    <sat>25</sat>
  </wpt>
  <wpt lat="-8.11738188" lon="-34.89662994">
    <ele>3.3402099609375</ele>
    <time>2024-04-18T17:21:08Z</time>
    <name>Área transitável da ciclo (cm)</name>
    <sat>24</sat>
  </wpt>
  <wpt lat="-8.11737998" lon="-34.89662974">
    <ele>3.5526123046875</ele>
    <time>2024-04-18T17:21:09Z</time>
    <name>105</name>
    <sat>24</sat>
  </wpt>
  <wpt lat="-8.11738125" lon="-34.89663616">
    <ele>4.4248046875</ele>
    <time>2024-04-18T17:22:01Z</time>
    <name>Área de amortecimento da ciclo (cm)</name>
    <sat>24</sat>
  </wpt>
  <wpt lat="-8.11738125" lon="-34.89663616">
    <ele>4.4248046875</ele>
    <time>2024-04-18T17:22:01Z</time>
    <name>25</name>
    <sat>24</sat>
  </wpt>
  <wpt lat="-8.11738453" lon="-34.89663044">
    <ele>5.19000244140625</ele>
    <time>2024-04-18T17:22:04Z</time>
    <name>Total da via (incluindo a ciclo) (cm)</name>
    <sat>23</sat>
  </wpt>
  <wpt lat="-8.11738453" lon="-34.89663044">
    <ele>5.19000244140625</ele>
    <time>2024-04-18T17:22:04Z</time>
    <name>860</name>
    <sat>23</sat>
  </wpt>
  <wpt lat="-8.11738409" lon="-34.89661922">
    <ele>4.563262939453125</ele>
    <time>2024-04-18T17:22:20Z</time>
    <name>Foto</name>
    <link href="2024-04-18_14-22-20.jpg">
      <text>2024-04-18_14-22-20.jpg</text>
    </link>
    <sat>21</sat>
  </wpt>
  <wpt lat="-8.11737882" lon="-34.89661574">
    <ele>4.495269775390625</ele>
    <time>2024-04-18T17:22:21Z</time>
    <name>tamanho da faixa ao lado da ciclo não foi atualizado após instalação. faixa muito curta</name>
    <sat>21</sat>
  </wpt>
  <wpt lat="-8.11738492" lon="-34.89663487">
    <ele>6.819091796875</ele>
    <time>2024-04-18T17:23:16Z</time>
    <name>2 faixas</name>
    <sat>24</sat>
  </wpt>
  <wpt lat="-8.11738078" lon="-34.89660547">
    <ele>5.792877197265625</ele>
    <time>2024-04-18T17:23:32Z</time>
    <name>Em cruzamento MÁ condição</name>
    <sat>26</sat>
  </wpt>
  <wpt lat="-8.11738861" lon="-34.89662153">
    <ele>3.9561767578125</ele>
    <time>2024-04-18T17:23:41Z</time>
    <name>Foto</name>
    <link href="2024-04-18_14-23-41.jpg">
      <text>2024-04-18_14-23-41.jpg</text>
    </link>
    <sat>25</sat>
  </wpt>
  <wpt lat="-8.11758843" lon="-34.89623899">
    <ele>2.331207275390625</ele>
    <time>2024-04-18T17:24:49Z</time>
    <name>Área transitável da ciclo (cm)</name>
    <sat>24</sat>
  </wpt>
  <wpt lat="-8.11758844" lon="-34.89623901">
    <ele>2.3333740234375</ele>
    <time>2024-04-18T17:24:50Z</time>
    <name>100</name>
    <sat>22</sat>
  </wpt>
  <wpt lat="-8.11796488" lon="-34.89557529">
    <ele>0.50341796875</ele>
    <time>2024-04-18T17:26:31Z</time>
    <name>Foto</name>
    <link href="2024-04-18_14-26-31.jpg">
      <text>2024-04-18_14-26-31.jpg</text>
    </link>
    <sat>27</sat>
  </wpt>
  <wpt lat="-8.11796488" lon="-34.89557529">
    <ele>0.50341796875</ele>
    <time>2024-04-18T17:26:31Z</time>
    <name>trecho de ciclofaixa encerrado devido ao recapeamento</name>
    <sat>27</sat>
  </wpt>
  <wpt lat="-8.11796952" lon="-34.89558188">
    <ele>1.1650390625</ele>
    <time>2024-04-18T17:26:54Z</time>
    <name>Foto</name>
    <link href="2024-04-18_14-26-54.jpg">
      <text>2024-04-18_14-26-54.jpg</text>
    </link>
    <sat>28</sat>
  </wpt>
  <wpt lat="-8.1183487" lon="-34.89482233">
    <ele>-2.83642578125</ele>
    <time>2024-04-18T17:28:17Z</time>
    <name>Foto</name>
    <link href="2024-04-18_14-28-17.jpg">
      <text>2024-04-18_14-28-17.jpg</text>
    </link>
    <sat>25</sat>
  </wpt>
  <wpt lat="-8.11835579" lon="-34.89481724">
    <ele>-2.7080078125</ele>
    <time>2024-04-18T17:28:37Z</time>
    <name>SE CICLOFAIXA: para invadir a ciclo parte do automóvel passa obrigatoriamente por cima de segregadores</name>
    <sat>27</sat>
  </wpt>
  <wpt lat="-8.11836016" lon="-34.89481779">
    <ele>-2.763275146484375</ele>
    <time>2024-04-18T17:28:40Z</time>
    <name>Segregadores NÃO DIFICULTAM o acesso de ciclistas</name>
    <sat>27</sat>
  </wpt>
  <wpt lat="-8.11835499" lon="-34.89481974">
    <ele>-1.13568115234375</ele>
    <time>2024-04-18T17:28:47Z</time>
    <name>A ciclo é completamente reta.</name>
    <sat>27</sat>
  </wpt>
  <wpt lat="-8.11835322" lon="-34.8948221">
    <ele>-0.9219970703125</ele>
    <time>2024-04-18T17:28:52Z</time>
    <name>Sombras na MAIOR PARTE da extensão</name>
    <sat>25</sat>
  </wpt>
  <wpt lat="-8.1183519" lon="-34.89482062">
    <ele>-2.17193603515625</ele>
    <time>2024-04-18T17:28:55Z</time>
    <name>A pintura está boa, COMPLETA e visível</name>
    <sat>26</sat>
  </wpt>
  <wpt lat="-8.11835239" lon="-34.89481864">
    <ele>-2.819732666015625</ele>
    <time>2024-04-18T17:28:57Z</time>
    <name>Bom estado</name>
    <sat>25</sat>
  </wpt>
  <wpt lat="-8.11834953" lon="-34.89482479">
    <ele>-1.345947265625</ele>
    <time>2024-04-18T17:29:05Z</time>
    <name>Iluminação geral na via do mesmo lado da estrutura</name>
    <sat>27</sat>
  </wpt>
  <wpt lat="-8.11834901" lon="-34.89482267">
    <ele>-1.42578125</ele>
    <time>2024-04-18T17:29:08Z</time>
    <name>obs: nesse caso, como o recapeamento foi so no final, considerei apenas o trecho em estado normal na avaliação.</name>
    <sat>27</sat>
  </wpt>
</gpx>