<?xml version="1.0" encoding="UTF-8" standalone="yes"?>
<gpx>
  <metadata>
    <name>2024-05-10_11-32-35 ciclovia academia da cidade gaibu</name>
    <keywords>auditoria cicloviaria</keywords>
    <keywords>osmtracker</keywords>
  </metadata>
  <wpt lat="-8.33988987" lon="-34.95345812">
    <ele>1.965301513671875</ele>
    <time>2024-05-10T14:32:42Z</time>
    <name>Gravação de voz</name>
    <link href="2024-05-10_11-32-42.3gpp">
      <text>2024-05-10_11-32-42.3gpp</text>
    </link>
    <sat>32</sat>
  </wpt>
  <wpt lat="-8.33991687" lon="-34.95348969">
    <ele>4.78521728515625</ele>
    <time>2024-05-10T14:33:06Z</time>
    <name>Gravação de voz</name>
    <link href="2024-05-10_11-33-05.3gpp">
      <text>2024-05-10_11-33-05.3gpp</text>
    </link>
    <sat>33</sat>
  </wpt>
  <wpt lat="-8.3399059" lon="-34.95348978">
    <ele>6.102081298828125</ele>
    <time>2024-05-10T14:33:48Z</time>
    <name>Foto</name>
    <link href="2024-05-10_11-33-48.jpg">
      <text>2024-05-10_11-33-48.jpg</text>
    </link>
    <sat>33</sat>
  </wpt>
  <wpt lat="-8.33990886" lon="-34.9535145">
    <ele>6.277008056640625</ele>
    <time>2024-05-10T14:34:25Z</time>
    <name>Área transitável da ciclo (cm)</name>
    <sat>33</sat>
  </wpt>
  <wpt lat="-8.33990938" lon="-34.95351432">
    <ele>6.282012939453125</ele>
    <time>2024-05-10T14:34:26Z</time>
    <name>256</name>
    <sat>33</sat>
  </wpt>
  <wpt lat="-8.33991819" lon="-34.95349507">
    <ele>5.665252685546875</ele>
    <time>2024-05-10T14:34:37Z</time>
    <name>Ciclovia</name>
    <sat>33</sat>
  </wpt>
  <wpt lat="-8.33991853" lon="-34.95349756">
    <ele>6.049957275390625</ele>
    <time>2024-05-10T14:34:47Z</time>
    <name>Toda área de circulação pintada de vermelho</name>
    <sat>33</sat>
  </wpt>
  <wpt lat="-8.3399057" lon="-34.95349239">
    <ele>5.9498291015625</ele>
    <time>2024-05-10T14:34:55Z</time>
    <name>Tijolo intertravado</name>
    <sat>33</sat>
  </wpt>
  <wpt lat="-8.33989787" lon="-34.95348759">
    <ele>6.949920654296875</ele>
    <time>2024-05-10T14:35:01Z</time>
    <name>como não há via, algumas caracterizações nao foram feitas</name>
    <sat>33</sat>
  </wpt>
  <wpt lat="-8.34003687" lon="-34.95386959">
    <ele>5.664703369140625</ele>
    <time>2024-05-10T14:35:58Z</time>
    <name>Foto</name>
    <link href="2024-05-10_11-35-58.jpg">
      <text>2024-05-10_11-35-58.jpg</text>
    </link>
    <sat>33</sat>
  </wpt>
  <wpt lat="-8.34004287" lon="-34.95443654">
    <ele>6.640655517578125</ele>
    <time>2024-05-10T14:36:24Z</time>
    <name>Foto</name>
    <link href="2024-05-10_11-36-24.jpg">
      <text>2024-05-10_11-36-24.jpg</text>
    </link>
    <sat>33</sat>
  </wpt>
  <wpt lat="-8.33976275" lon="-34.95486671">
    <ele>6.381805419921875</ele>
    <time>2024-05-10T14:36:43Z</time>
    <name>Foto</name>
    <link href="2024-05-10_11-36-43.jpg">
      <text>2024-05-10_11-36-43.jpg</text>
    </link>
    <sat>32</sat>
  </wpt>
  <wpt lat="-8.33967023" lon="-34.95520567">
    <ele>7.971923828125</ele>
    <time>2024-05-10T14:37:12Z</time>
    <name>Foto</name>
    <link href="2024-05-10_11-37-12.jpg">
      <text>2024-05-10_11-37-12.jpg</text>
    </link>
    <sat>31</sat>
  </wpt>
  <wpt lat="-8.33967657" lon="-34.95520187">
    <ele>8.16943359375</ele>
    <time>2024-05-10T14:37:23Z</time>
    <name>Foto</name>
    <link href="2024-05-10_11-37-23.jpg">
      <text>2024-05-10_11-37-23.jpg</text>
    </link>
    <sat>33</sat>
  </wpt>
  <wpt lat="-8.33976225" lon="-34.95499285">
    <ele>6.37847900390625</ele>
    <time>2024-05-10T14:38:00Z</time>
    <name>Área transitável da ciclo (cm)</name>
    <sat>33</sat>
  </wpt>
  <wpt lat="-8.33975965" lon="-34.95499225">
    <ele>6.4974365234375</ele>
    <time>2024-05-10T14:38:01Z</time>
    <name>372</name>
    <sat>33</sat>
  </wpt>
  <wpt lat="-8.33975862" lon="-34.95499652">
    <ele>6.820556640625</ele>
    <time>2024-05-10T14:38:10Z</time>
    <name>SE CICLOVIA: segregação impede completamente a invasão de automóvel e não há trechos desprotegidos</name>
    <sat>33</sat>
  </wpt>
  <wpt lat="-8.3397584" lon="-34.95499933">
    <ele>6.525848388671875</ele>
    <time>2024-05-10T14:38:12Z</time>
    <name>Segregadores NÃO DIFICULTAM o acesso de ciclistas</name>
    <sat>33</sat>
  </wpt>
  <wpt lat="-8.33976303" lon="-34.95500105">
    <ele>7.087738037109375</ele>
    <time>2024-05-10T14:38:16Z</time>
    <name>A ciclo é sinuosa, exigindo atenção</name>
    <sat>33</sat>
  </wpt>
  <wpt lat="-8.3397643" lon="-34.95499732">
    <ele>6.55279541015625</ele>
    <time>2024-05-10T14:38:39Z</time>
    <name>Sombras em alguns trechos, COM mudas plantadas</name>
    <sat>32</sat>
  </wpt>
  <wpt lat="-8.3397426" lon="-34.95498694">
    <ele>7.595123291015625</ele>
    <time>2024-05-10T14:38:49Z</time>
    <name>A pintura está boa, COMPLETA e visível</name>
    <sat>32</sat>
  </wpt>
  <wpt lat="-8.33974382" lon="-34.95497559">
    <ele>8.01873779296875</ele>
    <time>2024-05-10T14:38:52Z</time>
    <name>a pintura está boa no sentido de o chão estar vermelho, mas não há marcaçoes nele</name>
    <sat>33</sat>
  </wpt>
  <wpt lat="-8.33974557" lon="-34.95498462">
    <ele>10.91278076171875</ele>
    <time>2024-05-10T14:39:25Z</time>
    <name>Pequenas imperfeições, como fissuras</name>
    <sat>32</sat>
  </wpt>
  <wpt lat="-8.3397318" lon="-34.95498721">
    <ele>11.053009033203125</ele>
    <time>2024-05-10T14:39:51Z</time>
    <name>Iluminação geral na via do mesmo lado da estrutura</name>
    <sat>33</sat>
  </wpt>
  <wpt lat="-8.33972789" lon="-34.95498678">
    <ele>10.981414794921875</ele>
    <time>2024-05-10T14:39:54Z</time>
    <name>não tinha opção boa de iluminação pra desvrever, mas não há iluminação dedicada para a ciclo, apenas outras iluminações do parque. exemplo: refletores das quadras</name>
    <sat>33</sat>
  </wpt>
  <wpt lat="-8.33974614" lon="-34.95495052">
    <ele>7.744415283203125</ele>
    <time>2024-05-10T14:41:02Z</time>
    <name>Foto</name>
    <link href="2024-05-10_11-41-02.jpg">
      <text>2024-05-10_11-41-02.jpg</text>
    </link>
    <sat>33</sat>
  </wpt>
</gpx>