<?xml version="1.0" encoding="UTF-8" standalone="yes"?>
<gpx>
  <metadata>
    <name>2024-04-26_17-10-50 RUA DA AURORA</name>
    <keywords>auditoria cicloviaria</keywords>
    <keywords>osmtracker</keywords>
    <desc>CF031</desc>
  </metadata>
  <wpt lat="-8.056351666666666" lon="-34.87786833333333">
    <ele>-22.4</ele>
    <time>2024-04-26T20:11:07Z</time>
    <name>Ciclofaixa</name>
    <sat>28</sat>
  </wpt>
  <wpt lat="-8.056298333333332" lon="-34.87786166666667">
    <ele>-17.8</ele>
    <time>2024-04-26T20:11:17Z</time>
    <name>Bidirecional</name>
    <sat>27</sat>
  </wpt>
  <wpt lat="-8.056273333333333" lon="-34.87786666666667">
    <ele>-12.8</ele>
    <time>2024-04-26T20:12:03Z</time>
    <name>Na via, junto ao canteiro</name>
    <sat>26</sat>
  </wpt>
  <wpt lat="-8.056273333333333" lon="-34.87786666666667">
    <ele>-12.8</ele>
    <time>2024-04-26T20:12:37Z</time>
    <name>No bordo direito de Via de Mão Única</name>
    <sat>26</sat>
  </wpt>
  <wpt lat="-8.056273333333333" lon="-34.87786666666667">
    <ele>-12.8</ele>
    <time>2024-04-26T20:12:53Z</time>
    <name>Toda área de circulação pintada de vermelho</name>
    <sat>26</sat>
  </wpt>
  <wpt lat="-8.056273333333333" lon="-34.87786666666667">
    <ele>-12.8</ele>
    <time>2024-04-26T20:12:56Z</time>
    <name>Tachões</name>
    <sat>26</sat>
  </wpt>
  <wpt lat="-8.056273333333333" lon="-34.87786666666667">
    <ele>-12.8</ele>
    <time>2024-04-26T20:13:15Z</time>
    <name>Canteiros</name>
    <sat>28</sat>
  </wpt>
  <wpt lat="-8.056273333333333" lon="-34.87786666666667">
    <ele>-12.8</ele>
    <time>2024-04-26T20:13:22Z</time>
    <name>1 faixa</name>
    <sat>28</sat>
  </wpt>
  <wpt lat="-8.056273333333333" lon="-34.87786666666667">
    <ele>-12.8</ele>
    <time>2024-04-26T20:13:33Z</time>
    <name>Estacionamento de um lado, incluso na circulação</name>
    <sat>27</sat>
  </wpt>
  <wpt lat="-8.056273333333333" lon="-34.87786666666667">
    <ele>-12.8</ele>
    <time>2024-04-26T20:14:00Z</time>
    <name>Seta BOA condição</name>
    <sat>26</sat>
  </wpt>
  <wpt lat="-8.056273333333333" lon="-34.87786666666667">
    <ele>-12.8</ele>
    <time>2024-04-26T20:14:00Z</time>
    <name>Seta BOA condição</name>
    <sat>26</sat>
  </wpt>
  <wpt lat="-8.056273333333333" lon="-34.87786666666667">
    <ele>-12.8</ele>
    <time>2024-04-26T20:14:01Z</time>
    <name>Pictograma BOA condição</name>
    <sat>28</sat>
  </wpt>
  <wpt lat="-8.056273333333333" lon="-34.87786666666667">
    <ele>-12.8</ele>
    <time>2024-04-26T20:14:02Z</time>
    <name>Pictograma BOA condição</name>
    <sat>26</sat>
  </wpt>
  <wpt lat="-8.056273333333333" lon="-34.87786666666667">
    <ele>-12.8</ele>
    <time>2024-04-26T20:14:04Z</time>
    <name>Em cruzamento BOA condição</name>
    <sat>26</sat>
  </wpt>
  <wpt lat="-8.056273333333333" lon="-34.87786666666667">
    <ele>-12.8</ele>
    <time>2024-04-26T20:14:07Z</time>
    <name>Em cruzamento BOA condição</name>
    <sat>25</sat>
  </wpt>
  <wpt lat="-8.056223333333332" lon="-34.87787333333333">
    <ele>-6.1</ele>
    <time>2024-04-26T20:14:29Z</time>
    <name>Área transitável da ciclo (cm)</name>
    <sat>25</sat>
  </wpt>
  <wpt lat="-8.056223333333332" lon="-34.87787333333333">
    <ele>-6.1</ele>
    <time>2024-04-26T20:14:30Z</time>
    <name>202cm</name>
    <sat>25</sat>
  </wpt>
  <wpt lat="-8.056223333333332" lon="-34.87787333333333">
    <ele>-6.1</ele>
    <time>2024-04-26T20:14:44Z</time>
    <name>Área de amortecimento da ciclo (cm)</name>
    <sat>26</sat>
  </wpt>
  <wpt lat="-8.056223333333332" lon="-34.87787333333333">
    <ele>-6.1</ele>
    <time>2024-04-26T20:14:45Z</time>
    <name>25cm</name>
    <sat>28</sat>
  </wpt>
  <wpt lat="-8.056228333333333" lon="-34.87784">
    <ele>-7.0</ele>
    <time>2024-04-26T20:15:04Z</time>
    <name>Vala profunda</name>
    <sat>27</sat>
  </wpt>
  <wpt lat="-8.056228333333333" lon="-34.87784">
    <ele>-7.0</ele>
    <time>2024-04-26T20:15:29Z</time>
    <name>Termina ciclo com ciclista na contramão</name>
    <sat>28</sat>
  </wpt>
  <wpt lat="-8.056228333333333" lon="-34.87784">
    <ele>-7.0</ele>
    <time>2024-04-26T20:15:46Z</time>
    <name>A ciclo troca de lado na via, sem redutores de velocidade ou semáforos</name>
    <sat>25</sat>
  </wpt>
  <wpt lat="-8.056228333333333" lon="-34.87784">
    <ele>-7.0</ele>
    <time>2024-04-26T20:15:57Z</time>
    <name>Cruzamento perigoso. EXPLIQUE.</name>
    <sat>29</sat>
  </wpt>
  <wpt lat="-8.056228333333333" lon="-34.87784">
    <ele>-7.0</ele>
    <time>2024-04-26T20:16:01Z</time>
    <name>Cruzamento com curva aberta com pouca sinalização </name>
    <sat>29</sat>
  </wpt>
  <wpt lat="-8.056228333333333" lon="-34.87784">
    <ele>-7.0</ele>
    <time>2024-04-26T20:16:53Z</time>
    <name>Foto</name>
    <link href="2024-04-26_17-16-53.jpg">
      <text>2024-04-26_17-16-53.jpg</text>
    </link>
    <sat>27</sat>
  </wpt>
  <wpt lat="-8.056228333333333" lon="-34.87784">
    <ele>-7.0</ele>
    <time>2024-04-26T20:17:03Z</time>
    <name>Conversão perigosa. EXPLIQUE.</name>
    <sat>27</sat>
  </wpt>
  <wpt lat="-8.056228333333333" lon="-34.87784">
    <ele>-7.0</ele>
    <time>2024-04-26T20:17:06Z</time>
    <name>Carros invadem a ciclo</name>
    <sat>26</sat>
  </wpt>
  <wpt lat="-8.056228333333333" lon="-34.87784">
    <ele>-7.0</ele>
    <time>2024-04-26T20:17:38Z</time>
    <name>Nenhum elemento de controle de velocidade na via</name>
    <sat>26</sat>
  </wpt>
  <wpt lat="-8.056228333333333" lon="-34.87784">
    <ele>-7.0</ele>
    <time>2024-04-26T20:17:52Z</time>
    <name>Via transversal COM acesso à ciclovia</name>
    <sat>29</sat>
  </wpt>
  <wpt lat="-8.05542" lon="-34.877383333333334">
    <ele>-10.9</ele>
    <time>2024-04-26T20:20:02Z</time>
    <name>Seta BOA condição</name>
    <sat>22</sat>
  </wpt>
  <wpt lat="-8.05542" lon="-34.877383333333334">
    <ele>-10.9</ele>
    <time>2024-04-26T20:20:02Z</time>
    <name>Seta BOA condição</name>
    <sat>22</sat>
  </wpt>
  <wpt lat="-8.055426666666667" lon="-34.87737833333333">
    <ele>-11.5</ele>
    <time>2024-04-26T20:20:05Z</time>
    <name>Seta BOA condição</name>
    <sat>22</sat>
  </wpt>
  <wpt lat="-8.055428333333333" lon="-34.87737666666667">
    <ele>-11.299999999999999</ele>
    <time>2024-04-26T20:20:06Z</time>
    <name>Seta BOA condição</name>
    <sat>22</sat>
  </wpt>
  <wpt lat="-8.055428333333333" lon="-34.877375">
    <ele>-11.0</ele>
    <time>2024-04-26T20:20:07Z</time>
    <name>Pictograma BOA condição</name>
    <sat>22</sat>
  </wpt>
  <wpt lat="-8.055428333333333" lon="-34.877375">
    <ele>-11.0</ele>
    <time>2024-04-26T20:20:07Z</time>
    <name>Pictograma BOA condição</name>
    <sat>22</sat>
  </wpt>
  <wpt lat="-8.055428333333333" lon="-34.87737333333334">
    <ele>-10.799999999999999</ele>
    <time>2024-04-26T20:20:08Z</time>
    <name>Pictograma BOA condição</name>
    <sat>22</sat>
  </wpt>
  <wpt lat="-8.055428333333333" lon="-34.87737333333334">
    <ele>-10.799999999999999</ele>
    <time>2024-04-26T20:20:08Z</time>
    <name>Pictograma BOA condição</name>
    <sat>22</sat>
  </wpt>
  <wpt lat="-8.055428333333333" lon="-34.87737333333334">
    <ele>-10.799999999999999</ele>
    <time>2024-04-26T20:20:29Z</time>
    <name>Travessia de pedestre em nível (lombofaixa)</name>
    <sat>23</sat>
  </wpt>
  <wpt lat="-8.055428333333333" lon="-34.87737333333334">
    <ele>-10.799999999999999</ele>
    <time>2024-04-26T20:20:36Z</time>
    <name>Piso diferenciado</name>
    <sat>22</sat>
  </wpt>
  <wpt lat="-8.054971666666667" lon="-34.87709666666667">
    <ele>-9.7</ele>
    <time>2024-04-26T20:21:06Z</time>
    <name>Seta BOA condição</name>
    <sat>28</sat>
  </wpt>
  <wpt lat="-8.054971666666667" lon="-34.87709666666667">
    <ele>-9.7</ele>
    <time>2024-04-26T20:21:06Z</time>
    <name>Seta BOA condição</name>
    <sat>28</sat>
  </wpt>
  <wpt lat="-8.054931666666667" lon="-34.87707666666667">
    <ele>-10.0</ele>
    <time>2024-04-26T20:21:07Z</time>
    <name>Pictograma BOA condição</name>
    <sat>29</sat>
  </wpt>
  <wpt lat="-8.054931666666667" lon="-34.87707666666667">
    <ele>-10.0</ele>
    <time>2024-04-26T20:21:07Z</time>
    <name>Pictograma BOA condição</name>
    <sat>29</sat>
  </wpt>
  <wpt lat="-8.054511666666667" lon="-34.87674833333333">
    <ele>-5.3</ele>
    <time>2024-04-26T20:22:20Z</time>
    <name>Área transitável da ciclo (cm)</name>
    <sat>15</sat>
  </wpt>
  <wpt lat="-8.054516666666666" lon="-34.87676">
    <ele>-5.6</ele>
    <time>2024-04-26T20:22:21Z</time>
    <name>210cm</name>
    <sat>16</sat>
  </wpt>
  <wpt lat="-8.054521666666666" lon="-34.876729999999995">
    <ele>-3.2</ele>
    <time>2024-04-26T20:22:27Z</time>
    <name>Área de amortecimento da ciclo (cm)</name>
    <sat>21</sat>
  </wpt>
  <wpt lat="-8.054521666666666" lon="-34.876729999999995">
    <ele>-3.2</ele>
    <time>2024-04-26T20:22:27Z</time>
    <name>25cm</name>
    <sat>21</sat>
  </wpt>
  <wpt lat="-8.054523333333332" lon="-34.87675333333333">
    <ele>-5.9</ele>
    <time>2024-04-26T20:23:17Z</time>
    <name>Nenhum elemento de controle de velocidade na via</name>
    <sat>29</sat>
  </wpt>
  <wpt lat="-8.054523333333332" lon="-34.87675333333333">
    <ele>-5.9</ele>
    <time>2024-04-26T20:23:27Z</time>
    <name>Vala profunda</name>
    <sat>27</sat>
  </wpt>
  <wpt lat="-8.054448333333333" lon="-34.876735000000004">
    <ele>-8.8</ele>
    <time>2024-04-26T20:24:19Z</time>
    <name>Seta BOA condição</name>
    <sat>24</sat>
  </wpt>
  <wpt lat="-8.054428333333334" lon="-34.87672833333333">
    <ele>-8.5</ele>
    <time>2024-04-26T20:24:20Z</time>
    <name>Seta BOA condição</name>
    <sat>25</sat>
  </wpt>
  <wpt lat="-8.054406666666667" lon="-34.87672166666667">
    <ele>-8.4</ele>
    <time>2024-04-26T20:24:21Z</time>
    <name>Pictograma BOA condição</name>
    <sat>27</sat>
  </wpt>
  <wpt lat="-8.054406666666667" lon="-34.87672166666667">
    <ele>-8.4</ele>
    <time>2024-04-26T20:24:21Z</time>
    <name>Pictograma BOA condição</name>
    <sat>27</sat>
  </wpt>
  <wpt lat="-8.054288333333334" lon="-34.87664666666667">
    <ele>-6.6</ele>
    <time>2024-04-26T20:24:27Z</time>
    <name>Seta BOA condição</name>
    <sat>26</sat>
  </wpt>
  <wpt lat="-8.054288333333334" lon="-34.87664666666667">
    <ele>-6.6</ele>
    <time>2024-04-26T20:24:27Z</time>
    <name>Seta BOA condição</name>
    <sat>26</sat>
  </wpt>
  <wpt lat="-8.054268333333333" lon="-34.87663333333333">
    <ele>-6.4</ele>
    <time>2024-04-26T20:24:28Z</time>
    <name>Pictograma BOA condição</name>
    <sat>26</sat>
  </wpt>
  <wpt lat="-8.054268333333333" lon="-34.87663333333333">
    <ele>-6.4</ele>
    <time>2024-04-26T20:24:28Z</time>
    <name>Pictograma BOA condição</name>
    <sat>26</sat>
  </wpt>
  <wpt lat="-8.05419" lon="-34.87658166666667">
    <ele>-6.8</ele>
    <time>2024-04-26T20:24:33Z</time>
    <name>Travessia de pedestre em nível (lombofaixa)</name>
    <sat>29</sat>
  </wpt>
  <wpt lat="-8.054138333333333" lon="-34.876549999999995">
    <ele>-6.2</ele>
    <time>2024-04-26T20:24:37Z</time>
    <name>Piso diferenciado</name>
    <sat>30</sat>
  </wpt>
  <wpt lat="-8.053965" lon="-34.876423333333335">
    <ele>-5.1</ele>
    <time>2024-04-26T20:24:46Z</time>
    <name>Seta BOA condição</name>
    <sat>30</sat>
  </wpt>
  <wpt lat="-8.053965" lon="-34.876423333333335">
    <ele>-5.1</ele>
    <time>2024-04-26T20:24:46Z</time>
    <name>Seta BOA condição</name>
    <sat>30</sat>
  </wpt>
  <wpt lat="-8.05394" lon="-34.87640333333333">
    <ele>-5.4</ele>
    <time>2024-04-26T20:24:47Z</time>
    <name>Pictograma BOA condição</name>
    <sat>30</sat>
  </wpt>
  <wpt lat="-8.053916666666668" lon="-34.87638833333333">
    <ele>-5.4</ele>
    <time>2024-04-26T20:24:48Z</time>
    <name>Pictograma BOA condição</name>
    <sat>30</sat>
  </wpt>
  <wpt lat="-8.053865" lon="-34.876355">
    <ele>-4.3</ele>
    <time>2024-04-26T20:24:50Z</time>
    <name>Seta BOA condição</name>
    <sat>30</sat>
  </wpt>
  <wpt lat="-8.053833333333333" lon="-34.87633833333334">
    <ele>-4.3</ele>
    <time>2024-04-26T20:24:51Z</time>
    <name>Seta BOA condição</name>
    <sat>29</sat>
  </wpt>
  <wpt lat="-8.053833333333333" lon="-34.87633833333334">
    <ele>-4.3</ele>
    <time>2024-04-26T20:24:51Z</time>
    <name>Pictograma BOA condição</name>
    <sat>29</sat>
  </wpt>
  <wpt lat="-8.053806666666667" lon="-34.87631833333333">
    <ele>-4.3</ele>
    <time>2024-04-26T20:24:52Z</time>
    <name>Pictograma BOA condição</name>
    <sat>30</sat>
  </wpt>
  <wpt lat="-8.053406666666666" lon="-34.87609166666667">
    <ele>-4.1</ele>
    <time>2024-04-26T20:25:05Z</time>
    <name>Seta BOA condição</name>
    <sat>28</sat>
  </wpt>
  <wpt lat="-8.053406666666666" lon="-34.87609166666667">
    <ele>-4.1</ele>
    <time>2024-04-26T20:25:05Z</time>
    <name>Seta BOA condição</name>
    <sat>28</sat>
  </wpt>
  <wpt lat="-8.053378333333335" lon="-34.87607333333334">
    <ele>-4.3</ele>
    <time>2024-04-26T20:25:06Z</time>
    <name>Pictograma BOA condição</name>
    <sat>28</sat>
  </wpt>
  <wpt lat="-8.053378333333335" lon="-34.87607333333334">
    <ele>-4.3</ele>
    <time>2024-04-26T20:25:06Z</time>
    <name>Pictograma BOA condição</name>
    <sat>28</sat>
  </wpt>
  <wpt lat="-8.052986666666667" lon="-34.87582166666667">
    <ele>-1.8000000000000007</ele>
    <time>2024-04-26T20:25:20Z</time>
    <name>Seta BOA condição</name>
    <sat>28</sat>
  </wpt>
  <wpt lat="-8.052958333333333" lon="-34.87580833333333">
    <ele>-2.4000000000000004</ele>
    <time>2024-04-26T20:25:21Z</time>
    <name>Seta BOA condição</name>
    <sat>28</sat>
  </wpt>
  <wpt lat="-8.052926666666668" lon="-34.87579166666667">
    <ele>-3.4000000000000004</ele>
    <time>2024-04-26T20:25:22Z</time>
    <name>Pictograma BOA condição</name>
    <sat>29</sat>
  </wpt>
  <wpt lat="-8.052926666666668" lon="-34.87579166666667">
    <ele>-3.4000000000000004</ele>
    <time>2024-04-26T20:25:22Z</time>
    <name>Pictograma BOA condição</name>
    <sat>29</sat>
  </wpt>
  <wpt lat="-8.05287" lon="-34.87575666666667">
    <ele>-5.7</ele>
    <time>2024-04-26T20:25:24Z</time>
    <name>Seta BOA condição</name>
    <sat>28</sat>
  </wpt>
  <wpt lat="-8.05287" lon="-34.87575666666667">
    <ele>-5.7</ele>
    <time>2024-04-26T20:25:24Z</time>
    <name>Seta BOA condição</name>
    <sat>28</sat>
  </wpt>
  <wpt lat="-8.052841666666666" lon="-34.875745">
    <ele>-6.1</ele>
    <time>2024-04-26T20:25:25Z</time>
    <name>Pictograma BOA condição</name>
    <sat>28</sat>
  </wpt>
  <wpt lat="-8.052841666666666" lon="-34.875745">
    <ele>-6.1</ele>
    <time>2024-04-26T20:25:25Z</time>
    <name>Pictograma BOA condição</name>
    <sat>28</sat>
  </wpt>
  <wpt lat="-8.05277" lon="-34.875655">
    <ele>-8.2</ele>
    <time>2024-04-26T20:27:30Z</time>
    <name>Área transitável da ciclo (cm)</name>
    <sat>29</sat>
  </wpt>
  <wpt lat="-8.05277" lon="-34.875655">
    <ele>-8.2</ele>
    <time>2024-04-26T20:27:33Z</time>
    <name>210cm</name>
    <sat>29</sat>
  </wpt>
  <wpt lat="-8.05277" lon="-34.875655">
    <ele>-8.2</ele>
    <time>2024-04-26T20:27:40Z</time>
    <name>Área de amortecimento da ciclo (cm)</name>
    <sat>29</sat>
  </wpt>
  <wpt lat="-8.05277" lon="-34.875655">
    <ele>-8.2</ele>
    <time>2024-04-26T20:27:40Z</time>
    <name>25cm</name>
    <sat>29</sat>
  </wpt>
  <wpt lat="-8.052288333333333" lon="-34.87532">
    <ele>-9.2</ele>
    <time>2024-04-26T20:28:28Z</time>
    <name>Seta BOA condição</name>
    <sat>30</sat>
  </wpt>
  <wpt lat="-8.052288333333333" lon="-34.87532">
    <ele>-9.2</ele>
    <time>2024-04-26T20:28:28Z</time>
    <name>Seta BOA condição</name>
    <sat>30</sat>
  </wpt>
  <wpt lat="-8.052288333333333" lon="-34.87532">
    <ele>-9.2</ele>
    <time>2024-04-26T20:28:28Z</time>
    <name>Pictograma BOA condição</name>
    <sat>30</sat>
  </wpt>
  <wpt lat="-8.05227" lon="-34.87530833333334">
    <ele>-9.5</ele>
    <time>2024-04-26T20:28:29Z</time>
    <name>Pictograma BOA condição</name>
    <sat>30</sat>
  </wpt>
  <wpt lat="-8.052208333333335" lon="-34.87527">
    <ele>-7.4</ele>
    <time>2024-04-26T20:28:47Z</time>
    <name>U invertido</name>
    <sat>29</sat>
  </wpt>
  <wpt lat="-8.052208333333335" lon="-34.87527">
    <ele>-7.4</ele>
    <time>2024-04-26T20:29:02Z</time>
    <name>Estacionamento de um lado, incluso na circulação</name>
    <sat>30</sat>
  </wpt>
  <wpt lat="-8.051498333333333" lon="-34.87482166666667">
    <ele>-6.8</ele>
    <time>2024-04-26T20:30:01Z</time>
    <name>Seta BOA condição</name>
    <sat>32</sat>
  </wpt>
  <wpt lat="-8.051498333333333" lon="-34.87482166666667">
    <ele>-6.8</ele>
    <time>2024-04-26T20:30:01Z</time>
    <name>Seta BOA condição</name>
    <sat>32</sat>
  </wpt>
  <wpt lat="-8.051498333333333" lon="-34.87482166666667">
    <ele>-6.8</ele>
    <time>2024-04-26T20:30:01Z</time>
    <name>Seta BOA condição</name>
    <sat>32</sat>
  </wpt>
  <wpt lat="-8.051496666666667" lon="-34.87482166666667">
    <ele>-6.8</ele>
    <time>2024-04-26T20:30:02Z</time>
    <name>Seta BOA condição</name>
    <sat>30</sat>
  </wpt>
  <wpt lat="-8.051495" lon="-34.87482166666667">
    <ele>-6.6</ele>
    <time>2024-04-26T20:30:03Z</time>
    <name>Pictograma BOA condição</name>
    <sat>30</sat>
  </wpt>
  <wpt lat="-8.051495" lon="-34.87482166666667">
    <ele>-6.6</ele>
    <time>2024-04-26T20:30:03Z</time>
    <name>Pictograma BOA condição</name>
    <sat>30</sat>
  </wpt>
  <wpt lat="-8.051495" lon="-34.87482166666667">
    <ele>-6.7</ele>
    <time>2024-04-26T20:30:04Z</time>
    <name>Pictograma BOA condição</name>
    <sat>30</sat>
  </wpt>
  <wpt lat="-8.051495" lon="-34.87482166666667">
    <ele>-6.7</ele>
    <time>2024-04-26T20:30:04Z</time>
    <name>Pictograma BOA condição</name>
    <sat>30</sat>
  </wpt>
  <wpt lat="-8.051461666666667" lon="-34.87480666666667">
    <ele>-4.7</ele>
    <time>2024-04-26T20:30:38Z</time>
    <name>Vala profunda</name>
    <sat>31</sat>
  </wpt>
  <wpt lat="-8.051461666666667" lon="-34.87480666666667">
    <ele>-4.7</ele>
    <time>2024-04-26T20:31:17Z</time>
    <name>Via transversal SEM acesso à ciclovia</name>
    <sat>30</sat>
  </wpt>
  <wpt lat="-8.051278333333332" lon="-34.87469166666666">
    <ele>-2.7</ele>
    <time>2024-04-26T20:33:02Z</time>
    <name>Estacionamento de um lado, incluso na circulação</name>
    <sat>31</sat>
  </wpt>
  <wpt lat="-8.050783333333333" lon="-34.87439166666666">
    <ele>-5.9</ele>
    <time>2024-04-26T20:33:22Z</time>
    <name>Seta BOA condição</name>
    <sat>32</sat>
  </wpt>
  <wpt lat="-8.050755" lon="-34.87437333333333">
    <ele>-6.4</ele>
    <time>2024-04-26T20:33:23Z</time>
    <name>Seta BOA condição</name>
    <sat>32</sat>
  </wpt>
  <wpt lat="-8.05073" lon="-34.87435833333333">
    <ele>-6.1</ele>
    <time>2024-04-26T20:33:24Z</time>
    <name>Pictograma BOA condição</name>
    <sat>32</sat>
  </wpt>
  <wpt lat="-8.05073" lon="-34.87435833333333">
    <ele>-6.1</ele>
    <time>2024-04-26T20:33:24Z</time>
    <name>Pictograma BOA condição</name>
    <sat>32</sat>
  </wpt>
  <wpt lat="-8.050215" lon="-34.874024999999996">
    <ele>-6.6</ele>
    <time>2024-04-26T20:33:47Z</time>
    <name>Seta BOA condição</name>
    <sat>32</sat>
  </wpt>
  <wpt lat="-8.050196666666666" lon="-34.87401166666667">
    <ele>-6.7</ele>
    <time>2024-04-26T20:33:48Z</time>
    <name>Seta BOA condição</name>
    <sat>32</sat>
  </wpt>
  <wpt lat="-8.050163333333334" lon="-34.87399333333334">
    <ele>-6.4</ele>
    <time>2024-04-26T20:33:50Z</time>
    <name>Pictograma BOA condição</name>
    <sat>32</sat>
  </wpt>
  <wpt lat="-8.050163333333334" lon="-34.87399333333334">
    <ele>-6.4</ele>
    <time>2024-04-26T20:33:50Z</time>
    <name>Pictograma BOA condição</name>
    <sat>32</sat>
  </wpt>
  <wpt lat="-8.050103333333334" lon="-34.873931666666664">
    <ele>-5.1</ele>
    <time>2024-04-26T20:34:24Z</time>
    <name>Se tiver um nome, descreva</name>
    <sat>32</sat>
  </wpt>
  <wpt lat="-8.050131666666665" lon="-34.873934999999996">
    <ele>-5.9</ele>
    <time>2024-04-26T20:34:44Z</time>
    <name>U invertido</name>
    <sat>32</sat>
  </wpt>
  <wpt lat="-8.05014" lon="-34.873925">
    <ele>-5.3</ele>
    <time>2024-04-26T20:34:56Z</time>
    <name>Cruzamento perigoso. EXPLIQUE.</name>
    <sat>32</sat>
  </wpt>
  <wpt lat="-8.05014" lon="-34.873925">
    <ele>-5.3</ele>
    <time>2024-04-26T20:35:01Z</time>
    <name>obra faz com que carros invadam a ciclo</name>
    <sat>32</sat>
  </wpt>
  <wpt lat="-8.05014" lon="-34.873925">
    <ele>-5.3</ele>
    <time>2024-04-26T20:35:16Z</time>
    <name>Conversão perigosa. EXPLIQUE.</name>
    <sat>32</sat>
  </wpt>
  <wpt lat="-8.05014" lon="-34.873925">
    <ele>-5.3</ele>
    <time>2024-04-26T20:35:41Z</time>
    <name>Em cruzamento MÁ condição</name>
    <sat>30</sat>
  </wpt>
  <wpt lat="-8.05014" lon="-34.873925">
    <ele>-5.3</ele>
    <time>2024-04-26T20:35:59Z</time>
    <name>Nenhum elemento de controle de velocidade na via</name>
    <sat>30</sat>
  </wpt>
  <wpt lat="-8.05014" lon="-34.873925">
    <ele>-5.3</ele>
    <time>2024-04-26T20:36:04Z</time>
    <name>Vala profunda</name>
    <sat>30</sat>
  </wpt>
  <wpt lat="-8.05014" lon="-34.873925">
    <ele>-5.3</ele>
    <time>2024-04-26T20:37:34Z</time>
    <name>SE CICLOFAIXA: para invadir a ciclo parte do automóvel passa obrigatoriamente por cima de segregadores</name>
    <sat>30</sat>
  </wpt>
  <wpt lat="-8.05014" lon="-34.873925">
    <ele>-5.3</ele>
    <time>2024-04-26T20:37:50Z</time>
    <name>SE CICLOFAIXA: para invadir a ciclo parte do automóvel passa obrigatoriamente por cima de segregadores</name>
    <sat>31</sat>
  </wpt>
  <wpt lat="-8.05014" lon="-34.873925">
    <ele>-5.3</ele>
    <time>2024-04-26T20:38:11Z</time>
    <name>Segregadores DIFICULTAM o acesso parcialmente de ciclistas</name>
    <sat>31</sat>
  </wpt>
  <wpt lat="-8.05014" lon="-34.873925">
    <ele>-5.3</ele>
    <time>2024-04-26T20:38:28Z</time>
    <name>A ciclo é completamente reta.</name>
    <sat>31</sat>
  </wpt>
  <wpt lat="-8.05014" lon="-34.873925">
    <ele>-5.3</ele>
    <time>2024-04-26T20:39:22Z</time>
    <name>Sombras em alguns trechos, COM mudas plantadas</name>
    <sat>32</sat>
  </wpt>
  <wpt lat="-8.05014" lon="-34.873925">
    <ele>-5.3</ele>
    <time>2024-04-26T20:39:49Z</time>
    <name>A pintura está boa, mas FALHA em ALGUNS pontos</name>
    <sat>33</sat>
  </wpt>
  <wpt lat="-8.05014" lon="-34.873925">
    <ele>-5.3</ele>
    <time>2024-04-26T20:40:02Z</time>
    <name>Pequenas imperfeições, como fissuras</name>
    <sat>32</sat>
  </wpt>
  <wpt lat="-8.05014" lon="-34.873925">
    <ele>-5.3</ele>
    <time>2024-04-26T20:40:17Z</time>
    <name>Iluminação geral dos dois lados da via</name>
    <sat>31</sat>
  </wpt>
</gpx>